Property Reference,Charge Type,Gross Charge,Supplement,Small Business Relief,Charity Relief,Exemption Relief,Discretionary Relief,Additional Relief,Supporting Small Business Relief,Start Date,End Date,Company Name,Address,Easting,Northing,Longitude,Latitude,Spatial Accuracy,Location,Last Uploaded,Organisation URI,Socrata ID
UPRN00622003900094,Occupied,1386.00,0.00,0.00,0.00,0.00,0.00,0.00,0.00,01/04/2013,31/03/2014,VODAFONE LIMITED,"SITE (2717) AT, 39 REGENTS PARK ROAD, LONDON, NW1 7SY",528155,183744,-0.153561,51.538058,Postcode Level,"(51.538058, -0.153561)",30/10/2020 11:08:27 AM,http://opendatacommunities.org/id/london-borough-council/camden,58659
UPRN00642002800037,Occupied,16883.20,287.33,0.00,0.00,0.00,0.00,0.00,0.00,01/04/2010,13/11/2010,HI SUSHI (HOLDINGS) LIMITED,"3A CAMDEN WHARF, 28 JAMESTOWN ROAD, LONDON, NW1 7BY",528573,183991,-0.147448,51.540183,Postcode Level,"(51.540183, -0.147448)",30/10/2020 11:06:56 AM,http://opendatacommunities.org/id/london-borough-council/camden,3195
UPRN00000264399003,Occupied,195720.00,5460.00,0.00,0.00,0.00,0.00,0.00,0.00,01/04/2017,31/03/2018,COIN FURNITURE LTD,"BST & GND FS, 200-204 TOTTENHAM COURT ROAD, LONDON, W1T 7PL",529549,181853,-0.134168,51.520747,Postcode Level,"(51.520747, -0.134168)",30/10/2020 11:10:36 AM,http://opendatacommunities.org/id/london-borough-council/camden,136061
UPRN00937000100066,Occupied,22464.62,438.18,0.00,0.00,0.00,0.00,0.00,0.00,01/04/2010,14/08/2010,ADOBE SYSTEMS EUROPE LTD,"3RD F ADAM HOUSE, 1 FITZROY SQUARE, LONDON, W1T 5HE",,,,,No spatial information available,,30/10/2020 11:07:01 AM,http://opendatacommunities.org/id/london-borough-council/camden,5879
UPRN00895343605014,Occupied,8463.81,154.00,0.00,6894.25,0.00,0.00,0.00,0.00,01/04/2012,31/03/2013,ENERGY 4 IMPACT,"5TH F, 34-36 GRAYS INN ROAD, LONDON, WC1X 8HR",531116,181726,-0.111643,51.519244,Postcode Level,"(51.519244, -0.111643)",30/10/2020 11:08:01 AM,http://opendatacommunities.org/id/london-borough-council/camden,43032
UPRN05006018319992,Occupied,35760.00,968.50,0.00,0.00,0.00,600.00,0.00,0.00,01/04/2018,31/03/2019,ROBERT DYAS LTD,"BST & GND FS, 183-185 FINCHLEY ROAD, LONDON, NW3 6LB",526368,184568,-0.178993,51.545868,Postcode Level,"(51.545868, -0.178993)",30/10/2020 11:11:36 AM,http://opendatacommunities.org/id/london-borough-council/camden,172875
UPRN01188001610034,Occupied,38577.00,751.50,0.00,0.00,0.00,0.00,0.00,0.00,01/04/2013,31/03/2014,BULB LTD T/A THE THINK TANK,"3RD FLR, 16 KIRBY STREET, LONDON, EC1N 8TS",531422,181844,-0.107191,51.520233,Postcode Level,"(51.520233, -0.107191)",30/10/2020 11:08:39 AM,http://opendatacommunities.org/id/london-borough-council/camden,66761
UPRN01046005961048,Occupied,10527.00,0.00,0.00,0.00,0.00,0.00,0.00,0.00,01/04/2016,31/03/2017,ATTICMEDIA LIMITED,"3RD FLR UNIT B, COLONIAL BUILDING, 59-61 HATTON GARDEN, LONDON, EC1N 8LS",531291,181962,-0.109034,51.521324,Postcode Level,"(51.521324, -0.109034)",30/10/2020 11:10:15 AM,http://opendatacommunities.org/id/london-borough-council/camden,123985
UPRN00694009400006,Occupied,3547.68,93.93,0.00,0.00,0.00,0.00,0.00,0.00,20/02/2020,31/03/2020,PERSIAN ALMASS LTD,"94 BOUNDARY ROAD, LONDON, NW8 0RH",525941,183618,-0.185512,51.537424,Postcode Level,"(51.537424, -0.185512)",30/10/2020 11:12:22 AM,http://opendatacommunities.org/id/london-borough-council/camden,200834
UPRN01238003920024,Void (empty),0.00,0.00,0.00,0.00,0.00,0.00,0.00,0.00,01/04/2019,31/03/2020,CINECENTRE LIMITED,"4TH FLR (RSG), 39-41 PARKER STREET, LONDON, WC2B 5PQ",530453,181327,-0.12134,51.515812,Postcode Level,"(51.515812, -0.12134)",30/10/2020 11:12:10 AM,http://opendatacommunities.org/id/london-borough-council/camden,193944
UPRN01158000910018,Occupied,9891.00,0.00,0.00,0.00,0.00,0.00,0.00,0.00,01/04/2014,31/03/2015,11 STONE BUILDINGS (MANAGEMENT) LIMITED,"LGND F N, 9 STONE BUILDINGS, LONDON, WC2A 3TA",531004,181496,-0.113316,51.517205,Postcode Level,"(51.517205, -0.113316)",30/10/2020 11:09:14 AM,http://opendatacommunities.org/id/london-borough-council/camden,85858
UPRN0094800370001B,Occupied,5477.77,94.50,0.00,0.00,0.00,0.00,0.00,0.00,01/04/2010,31/03/2011,ABC CINEMAS LIMITED,"ADJ, 37 TOTTENHAM COURT ROAD, LONDON, W1T 1BY",529672,181609,-0.132486,51.518526,Postcode Level,"(51.518526, -0.132486)",30/10/2020 11:07:01 AM,http://opendatacommunities.org/id/london-borough-council/camden,6092
UPRN01027002200001,Void (empty),1886.30,33.53,0.00,0.00,0.00,0.00,0.00,0.00,01/04/2012,31/08/2012,QUEENS GATE HOLDINGS,"22 KINGS MEWS, LONDON, WC1N 2JB",530938,182006,-0.114077,51.521803,Postcode Level,"(51.521803, -0.114077)",30/10/2020 11:08:03 AM,http://opendatacommunities.org/id/london-borough-council/camden,44561
UPRN00295006500001,Occupied,222055.00,5785.00,0.00,0.00,0.00,0.00,0.00,0.00,01/04/2020,,COGNITA SCHOOLS LTD,"65 ROSSLYN HILL, LONDON, NW3 5UD",526640,185531,-0.174751,51.554459,Postcode Level,"(51.554459, -0.174751)",30/10/2020 11:12:25 AM,http://opendatacommunities.org/id/london-borough-council/camden,202598
UPRN00889035000716,Occupied,156000.00,4225.00,0.00,0.00,0.00,0.00,0.00,0.00,01/04/2015,31/03/2016,CAPITAL ONE (EUROPE) PLC,"7TH FLR PT LEFT, 350 EUSTON ROAD, LONDON, NW1 2RT",529587,182735,-0.133296,51.528664,Postcode Level,"(51.528664, -0.133296)",30/10/2020 11:09:37 AM,http://opendatacommunities.org/id/london-borough-council/camden,100501
UPRN05007021720005,Occupied,45331.56,1016.00,0.00,0.00,0.00,0.00,0.00,0.00,01/04/2012,31/03/2013,CO-OPERATIVE GROUP LIMITED,"217-223 KENTISH TOWN ROAD, LONDON, NW5 2JU",528940,184758,-0.141878,51.546992,Postcode Level,"(51.546992, -0.141878)",30/10/2020 11:08:12 AM,http://opendatacommunities.org/id/london-borough-council/camden,49911
UPRN00941009000037,Occupied,288116.60,6650.00,0.00,0.00,0.00,0.00,0.00,0.00,01/04/2010,31/03/2011,VIZEUM UK LTD,"2ND FLR THE QUBE, 90 WHITFIELD STREET, LONDON, W1T 4EZ",529345,182024,-0.137044,51.52233,Postcode Level,"(51.52233, -0.137044)",30/10/2020 11:07:01 AM,http://opendatacommunities.org/id/london-borough-council/camden,6002
UPRN00937001010016,Void (empty),582.57,11.70,0.00,0.00,594.27,0.00,0.00,0.00,01/05/2010,30/06/2010,10 FITZROY LTD,"ROOM G5 (INC 46 FITZROY ST), 10 FITZROY SQUARE, LONDON, W1T 5HP",529157,182173,-0.139672,51.523714,Postcode Level,"(51.523714, -0.139672)",30/10/2020 11:07:13 AM,http://opendatacommunities.org/id/london-borough-council/camden,13180
UPRN00363011230105,Void (empty),443.01,8.63,0.00,0.00,451.64,0.00,0.00,0.00,11/09/2013,30/09/2013,AISURU SUSHI RESTAURANT LIMITED - DISSOL,"UNITS R105 & L105 BST - GND FLRS, RINGLEY HOUSE, 112 KENTISH TOWN ROAD, LONDON, NW1 9PX",528987,184460,-0.141284,51.544306,Postcode Level,"(51.544306, -0.141284)",30/10/2020 11:08:47 AM,http://opendatacommunities.org/id/london-borough-council/camden,71653
UPRN00835000790026,Occupied,34715.40,932.44,0.00,0.00,0.00,0.00,0.00,0.00,01/04/2016,28/07/2016,JOHN MCASLAN & PARTNERS LTD,"BST-2ND FLRS, 7-9 WILLIAM ROAD, LONDON, NW1 3EN",529088,182580,-0.140517,51.527387,Postcode Level,"(51.527387, -0.140517)",30/10/2020 11:10:08 AM,http://opendatacommunities.org/id/london-borough-council/camden,119647
UPRN0118200361003A,Occupied,15609.00,419.25,0.00,0.00,0.00,0.00,0.00,0.00,01/04/2016,31/03/2017,ANDREW R ULLMANN LIMITED,"GND F W, 36 GREVILLE STREET, LONDON, EC1N 8TB",531402,181771,-0.107506,51.519582,Postcode Level,"(51.519582, -0.107506)",30/10/2020 11:10:21 AM,http://opendatacommunities.org/id/london-borough-council/camden,127231
UPRN01252000910019,Occupied,28193.50,734.50,0.00,0.00,0.00,0.00,0.00,0.00,01/04/2020,,WILBERFORCE CHAMBERS,"BST & GND FS N, 9 NEW SQUARE, LONDON, WC2A 3QH",530954,181293,-0.114137,51.51539,Postcode Level,"(51.51539, -0.114137)",30/10/2020 11:12:49 AM,http://opendatacommunities.org/id/london-borough-council/camden,216005
UPRN01261014200405,Occupied,698.81,0.00,0.00,0.00,0.00,0.00,0.00,0.00,01/02/2020,31/03/2020,WEWORK INTERNATIONAL LTD,"RM 1.005 1ST FLR, WATERHOUSE SQUARE, 142 HOLBORN, LONDON, EC1N 2NH",,,,,No spatial information available,,30/10/2020 11:12:22 AM,http://opendatacommunities.org/id/london-borough-council/camden,200662
UPRN01238005310026,Occupied,1444.02,0.00,0.00,0.00,0.00,0.00,0.00,0.00,28/10/2019,31/03/2020,WALLACESPACE LTD,"6TH FLR, 53 PARKER STREET, LONDON, WC2B 5PT",530512,181425,-0.120454,51.516679,Postcode Level,"(51.516679, -0.120454)",30/10/2020 11:12:19 AM,http://opendatacommunities.org/id/london-borough-council/camden,199065
UPRN01212017930088,Occupied,126000.00,3412.50,0.00,103530.00,0.00,0.00,0.00,0.00,01/04/2018,31/03/2019,ONE AGAINST POVERTY (UK),"8TH FL, ENDEAVOUR HOUSE, 179-199 SHAFTESBURY AVENUE, LONDON, WC2H 8AR",530034,181346,-0.127368,51.516079,Postcode Level,"(51.516079, -0.127368)",30/10/2020 11:11:33 AM,http://opendatacommunities.org/id/london-borough-council/camden,171308
UPRN00641012520284,Void (empty),648.00,17.55,0.00,0.00,665.55,0.00,0.00,0.00,01/04/2018,31/03/2019,LAZARI INVESTMENTS MANAGEMENT LIMITED,"CAR SPACE 28, 125-133 CAMDEN HIGH STREET, LONDON, NW1 7JR",528958,183701,-0.14198,51.537491,Postcode Level,"(51.537491, -0.14198)",30/10/2020 11:11:17 AM,http://opendatacommunities.org/id/london-borough-council/camden,161133
UPRN00362016310001,Occupied,14346.25,0.00,0.00,0.00,0.00,0.00,14346.25,0.00,01/04/2020,,COSTA LTD,"GND FLR, 163 FORTESS ROAD, LONDON, NW5 2HR",529097,185777,-0.139241,51.556114,Postcode Level,"(51.556114, -0.139241)",30/10/2020 11:12:26 AM,http://opendatacommunities.org/id/london-borough-council/camden,202962
UPRN00633001100176,Occupied,141300.00,3300.00,0.00,0.00,0.00,0.00,0.00,0.00,01/04/2014,31/03/2015,INTERTAIN LIMITED,"LOCK 17, 11 EAST YARD, CAMDEN LOCK PLACE, LONDON, NW1 8AL",528679,184140,-0.145866,51.541498,Postcode Level,"(51.541498, -0.145866)",30/10/2020 11:09:02 AM,http://opendatacommunities.org/id/london-borough-council/camden,78766
UPRN01086000102904,Occupied,1278.00,21.00,0.00,0.00,0.00,0.00,0.00,0.00,01/04/2011,31/03/2012,DERWENT LONDON PLC,"CAR SPACE 290, 1 STEPHEN STREET, LONDON, W1T 1AL",529694,181517,-0.132203,51.517694,Postcode Level,"(51.517694, -0.132203)",30/10/2020 11:07:34 AM,http://opendatacommunities.org/id/london-borough-council/camden,26867
UPRN01212019600024,Occupied,35843.00,949.00,0.00,0.00,0.00,600.00,0.00,0.00,01/04/2019,31/03/2020,CHESTERTON GLOBAL LIMITED,"BST & GND, 196 SHAFTESBURY AVENUE, LONDON, WC2H 8LF",,,,,No spatial information available,,30/10/2020 11:12:09 AM,http://opendatacommunities.org/id/london-borough-council/camden,193353
UPRN00889055509152,Occupied,63442.82,2743.00,0.00,0.00,0.00,0.00,0.00,0.00,01/04/2017,31/03/2018,TML REALISATIONS LIMITED - IN ADMIN,"UNIT 15 WESTERN CONCOURSE, KINGS CROSS BR STATION, EUSTON ROAD, LONDON, N1 9AL",,,,,No spatial information available,,30/10/2020 11:10:46 AM,http://opendatacommunities.org/id/london-borough-council/camden,141439
UPRN01058000800007,Occupied,44583.00,868.50,0.00,0.00,0.00,0.00,0.00,0.00,01/04/2013,31/03/2014,BLANC BRASSERIES LTD,"8 CHARLOTTE STREET, LONDON, W1T 2LS",,,,,No spatial information available,,30/10/2020 11:08:35 AM,http://opendatacommunities.org/id/london-borough-council/camden,64148
UPRN01073001011033,Occupied,18274.06,353.50,0.00,0.00,0.00,0.00,0.00,0.00,01/04/2010,31/03/2011,BLADONMORE LIMITED,"GND FLR LEFT & PT RIGHT, 10-11 PERCY STREET, LONDON, W1T 1DN",529620,181563,-0.133226,51.518126,Postcode Level,"(51.518126, -0.133226)",30/10/2020 11:07:05 AM,http://opendatacommunities.org/id/london-borough-council/camden,8430
UPRN00889035000049,Occupied,796500.00,14160.00,0.00,0.00,0.00,0.00,0.00,0.00,01/04/2012,31/03/2013,ELEXON UK  LTD,"4TH & 5TH FLRS, 350 EUSTON ROAD, LONDON, NW1 3BL",,,,,No spatial information available,,30/10/2020 11:07:59 AM,http://opendatacommunities.org/id/london-borough-council/camden,42184
UPRN01085001113902,Occupied,1221.00,21.00,0.00,0.00,0.00,0.00,0.00,0.00,01/04/2010,31/03/2011,ORANGE PCS LTD,"SITE (GLN 197) AT, 11-13 BAYLEY STREET, BEDFORD SQUARE, LONDON, WC1B 3HD",529709,181648,-0.131939,51.518868,Postcode Level,"(51.518868, -0.131939)",30/10/2020 11:07:05 AM,http://opendatacommunities.org/id/london-borough-council/camden,8589
UPRN012040103I7991,Occupied,1350.00,0.00,0.00,0.00,0.00,0.00,0.00,0.00,01/04/2012,31/03/2013,C B I,"BST 142 AT 103, NEW OXFORD STREET, LONDON, WC1A 1DD",,,,,No spatial information available,,30/10/2020 11:08:10 AM,http://opendatacommunities.org/id/london-borough-council/camden,48733
UPRN00782009900081,Occupied,84824.10,2834.00,0.00,0.00,0.00,0.00,0.00,0.00,01/04/2017,31/03/2018,JUNIFER SYSTEMS LTD,"1ST FLR NORTH BLOCK CARRIAGE ROW, 203 EVERSHOLT STREET, LONDON, NW1 1BL",529414,183102,-0.135654,51.532002,Postcode Level,"(51.532002, -0.135654)",30/10/2020 11:10:44 AM,http://opendatacommunities.org/id/london-borough-council/camden,140348
UPRN01162001409995,Occupied,454.96,0.00,0.00,0.00,0.00,0.00,0.00,0.00,01/04/2016,31/03/2017,HONOURABLE SOCIETY OF GRAYS INN,"BST 6 AT, 14 GRAYS INN SQUARE, LONDON, WC1R 5JP",531071,181755,-0.11228,51.519515,Postcode Level,"(51.519515, -0.11228)",30/10/2020 11:10:20 AM,http://opendatacommunities.org/id/london-borough-council/camden,126505
UPRN01184001000003,Occupied,17633.63,0.00,0.00,0.00,0.00,150.00,0.00,0.00,01/04/2017,31/03/2018,DAN LTD,"10 ST CROSS STREET, LONDON, EC1N 8UB",531298,181869,-0.108942,51.520489,Postcode Level,"(51.520489, -0.108942)",30/10/2020 11:10:56 AM,http://opendatacommunities.org/id/london-borough-council/camden,148377
UPRN00423006900008,Occupied,2127.67,0.00,0.00,0.00,0.00,0.00,0.00,0.00,01/04/2019,31/05/2019,REGAL HOMES CONSTRUCTION LIMITED,"BST & GND FS, 69 FAIRFAX ROAD, LONDON, NW6 4EE",526334,184211,-0.179636,51.542665,Postcode Level,"(51.542665, -0.179636)",30/10/2020 11:11:49 AM,http://opendatacommunities.org/id/london-borough-council/camden,181701
UPRN00968000139999,Occupied,30030.00,585.00,0.00,0.00,0.00,0.00,0.00,0.00,01/04/2013,31/03/2014,BLOOMSBURY INSTITUTE LIMITED,"4TH F DILKE HOUSE, 1 MALET STREET, LONDON, WC1E 7JG",,,,,No spatial information available,,30/10/2020 11:08:33 AM,http://opendatacommunities.org/id/london-borough-council/camden,62818
UPRN01108700420002,Occupied,136800.00,3705.00,0.00,0.00,0.00,0.00,0.00,0.00,01/04/2015,31/03/2016,S&K CAR PARK MANAGEMENT LTD,"CAR PARK, BLOOMSBURY SQUARE, LONDON, WC1B 2SL",,,,,No spatial information available,,30/10/2020 11:09:45 AM,http://opendatacommunities.org/id/london-borough-council/camden,105067
UPRN01212015400012,Occupied,78343.00,2041.00,0.00,0.00,0.00,0.00,80384.00,0.00,01/04/2020,,SHAFTESBURY COVENT GARDEN LIMITED,"BST & GRD FLR, 154 SHAFTESBURY AVENUE, LONDON, WC2H 8HL",529982,181092,-0.128211,51.513808,Postcode Level,"(51.513808, -0.128211)",30/10/2020 11:12:48 AM,http://opendatacommunities.org/id/london-borough-council/camden,215091
UPRN00737011620001,Occupied,77616.00,1512.00,0.00,0.00,0.00,0.00,0.00,0.00,01/04/2013,31/03/2014,GL DAMECK LTD,"BST GND FLR SOUTH & 1ST FLRS, 116-134 BAYHAM STREET, LONDON, NW1 0BA",529045,183856,-0.140669,51.538864,Postcode Level,"(51.538864, -0.140669)",30/10/2020 11:08:28 AM,http://opendatacommunities.org/id/london-borough-council/camden,59589
UPRN01175000800003,Occupied,86210.00,2405.00,0.00,0.00,0.00,3000.00,0.00,0.00,01/04/2017,31/03/2018,HOLLAND & BARRETT RETAIL LTD,"8 HIGH HOLBORN, LONDON, WC1V 6DR",531101,181636,-0.111892,51.518439,Postcode Level,"(51.518439, -0.111892)",30/10/2020 11:10:55 AM,http://opendatacommunities.org/id/london-borough-council/camden,147658
UPRN00006000011116,Void (empty),1176.62,32.50,0.00,0.00,1209.12,0.00,0.00,0.00,01/04/2018,31/03/2019,LBC - G26431623140,"TOLLGATE HOUSE, SPANIARDS ROAD, LONDON, NW3 7JJ",,,,,No spatial information available,,30/10/2020 11:11:12 AM,http://opendatacommunities.org/id/london-borough-council/camden,157989
UPRN0019900032000B,Occupied,145125.00,2580.00,0.00,0.00,0.00,0.00,0.00,0.00,01/04/2012,31/03/2013,LBC-G26406623140,"3-5 CRESSY ROAD, LONDON, NW3 2NB",527582,185606,-0.161144,51.554921,Postcode Level,"(51.554921, -0.161144)",30/10/2020 11:07:52 AM,http://opendatacommunities.org/id/london-borough-council/camden,38135
UPRN00153002810012,Occupied,682.78,0.00,0.00,0.00,0.00,0.00,0.00,0.00,01/02/2019,31/03/2019,LONDON & HAMPSTEAD SERVICED OFFICES LTD,"SUITE 1 GND FLR, 28B HAMPSTEAD HIGH STREET, LONDON, NW3 1QA",526514,185692,-0.17651,51.555934,Postcode Level,"(51.555934, -0.17651)",30/10/2020 11:11:44 AM,http://opendatacommunities.org/id/london-borough-council/camden,178629
UPRN00780011200519,Occupied,642.28,11.05,0.00,0.00,0.00,0.00,0.00,0.00,01/04/2010,13/01/2011,UCLH,"CAR SPACE 2, 112 HAMPSTEAD ROAD, LONDON, NW1 2LS",529245,182683,-0.138243,51.528275,Postcode Level,"(51.528275, -0.138243)",30/10/2020 11:06:57 AM,http://opendatacommunities.org/id/london-borough-council/camden,3941
UPRN00755044401712,Occupied,11929.73,232.40,0.00,0.00,0.00,0.00,0.00,0.00,07/11/2013,31/03/2014,MAGICGOAL LTD,"UNIT 17A, ST PANCRAS INTERNATIONAL STATION, PANCRAS ROAD, LONDON, NW1 2QP",,,,,No spatial information available,,30/10/2020 11:08:49 AM,http://opendatacommunities.org/id/london-borough-council/camden,72535
UPRN01095005620034,Occupied,13972.00,0.00,0.00,0.00,0.00,0.00,0.00,0.00,01/04/2020,,HUNTER HEALTHCARE RESOURCING LIMITED,"GRD FLR, 56-58 BLOOMSBURY STREET, LONDON, WC1B 3QT",529958,181643,-0.128354,51.518766,Postcode Level,"(51.518766, -0.128354)",30/10/2020 11:12:41 AM,http://opendatacommunities.org/id/london-borough-council/camden,211592
UPRN01058004800232,Occupied,3083.38,0.00,770.27,0.00,0.00,0.00,0.00,0.00,12/08/2013,31/03/2014,TRUSTE EUROPE LIMITED,"ROOM 2.09 2ND FLR, 48-54 CHARLOTTE STREET, LONDON, W1T 4PF",529397,181743,-0.136372,51.519795,Postcode Level,"(51.519795, -0.136372)",30/10/2020 11:08:47 AM,http://opendatacommunities.org/id/london-borough-council/camden,71283
UPRN99034026410015,Occupied,2746.23,0.00,0.00,0.00,0.00,0.00,0.00,0.00,12/12/2012,31/03/2013,VERTICE SERVICES ACCOUNTANCY & CONSULTANCY LTD,"ROOMS 1 3 4 5 & RECEPTION AT, GND FLR R/O, 264A BELSIZE ROAD, LONDON, NW6 4BT",525515,183682,-0.191603,51.538096,Postcode Level,"(51.538096, -0.191603)",30/10/2020 11:08:19 AM,http://opendatacommunities.org/id/london-borough-council/camden,54166
UPRN01204007791B17,Void (empty),852.00,14.00,0.00,0.00,0.00,0.00,0.00,0.00,01/08/2011,31/03/2012,ROYAL LONDON MUTUAL INSURANCE SOCIETY LT,"CPS NO 10 R/O, 77-91 NEW OXFORD STREET, LONDON, WC1A 1DG",529990,181403,-0.127956,51.516603,Postcode Level,"(51.516603, -0.127956)",30/10/2020 11:07:45 AM,http://opendatacommunities.org/id/london-borough-council/camden,33365
UPRN01133002530107,Occupied,5442.82,0.00,0.00,0.00,0.00,150.00,0.00,0.00,01/04/2017,31/03/2018,TARGETSPACE LIMITED,"ROOM 107 1ST FLR, LION COURT AT, 25 PROCTER STREET, LONDON, WC1V 6NY",530567,181623,-0.119589,51.518446,Postcode Level,"(51.518446, -0.119589)",30/10/2020 11:10:55 AM,http://opendatacommunities.org/id/london-borough-council/camden,147132
UPRN0117503033509B,Occupied,30196.50,799.50,0.00,0.00,0.00,150.00,0.00,0.00,01/04/2019,31/03/2020,CLANCY CONSULTING LIMITED,"7TH F NORTHUMBERLAND HOUSE, 303-306 HIGH HOLBORN, LONDON, WC1V 7JZ",530932,181590,-0.114344,51.518065,Postcode Level,"(51.518065, -0.114344)",30/10/2020 11:12:07 AM,http://opendatacommunities.org/id/london-borough-council/camden,192391
UPRN01204007791995,Occupied,1413.00,0.00,0.00,0.00,0.00,0.00,0.00,0.00,01/04/2014,31/03/2015,ROBIN PARTINGTON ARCHITECTS LTD,"CPS NO 3 R/O, 77-91 NEW OXFORD STREET, LONDON, WC1A 1DG",529990,181403,-0.127956,51.516603,Postcode Level,"(51.516603, -0.127956)",30/10/2020 11:09:16 AM,http://opendatacommunities.org/id/london-borough-council/camden,87213
UPRN00756020030069,Occupied,9470.32,0.00,0.00,0.00,0.00,150.00,0.00,0.00,01/04/2018,31/03/2019,MARYLEBONE MOTORS LIMITED,"126 CAMLEY STREET, LONDON, NW1 0PG",,,,,No spatial information available,,30/10/2020 11:11:19 AM,http://opendatacommunities.org/id/london-borough-council/camden,161992
UPRN01070000200019,Void (empty),3858.33,90.11,0.00,0.00,0.00,0.00,0.00,0.00,01/04/2014,16/11/2014,ERA CHINA LTD,"1ST FLR, 2 WINDMILL STREET, LONDON, W1T 2HX",529540,181598,-0.134391,51.518457,Postcode Level,"(51.518457, -0.134391)",30/10/2020 11:09:11 AM,http://opendatacommunities.org/id/london-borough-council/camden,84434
UPRN00576025401166,Void (empty),168.65,4.41,0.00,0.00,173.06,0.00,0.00,0.00,01/08/2012,30/09/2012,CASTLE TRADING LIMITED,"FIRST FLOOR UNIT 116, 254-256 BELSIZE ROAD, LONDON, NW6 4BT",525515,183682,-0.191603,51.538096,Postcode Level,"(51.538096, -0.191603)",30/10/2020 11:08:16 AM,http://opendatacommunities.org/id/london-borough-council/camden,52189
UPRN00895017520106,Void (empty),63.18,1.12,0.00,0.00,64.30,0.00,0.00,0.00,27/03/2013,31/03/2013,THE OFFICE (KINGS CROSS) LIMITED,"ROOM 1.06 1ST FLR, 175-185 GRAYS INN ROAD, LONDON, WC1X 8UP",,,,,No spatial information available,,30/10/2020 11:08:22 AM,http://opendatacommunities.org/id/london-borough-council/camden,55772
UPRN99140700230044,Occupied,0.00,0.00,0.00,0.00,0.00,0.00,0.00,0.00,01/04/2020,,THE HONOURABLE SOCIETY OF LINCOLN'S INN,"4TH FLR ROOM 4, GRAYS INN CHAMBERS, GRAY'S INN, LONDON, WC1R 5JA",,,,,No spatial information available,,30/10/2020 11:12:52 AM,http://opendatacommunities.org/id/london-borough-council/camden,217540
UPRN0019500041889A,Occupied,5929.00,0.00,0.00,0.00,0.00,0.00,0.00,0.00,01/04/2016,31/03/2017,SNIFFLES LIMITED,"GND F, 6 FLEET ROAD, LONDON, NW3 2QS",527743,185416,-0.158892,51.553177,Postcode Level,"(51.553177, -0.158892)",30/10/2020 11:10:03 AM,http://opendatacommunities.org/id/london-borough-council/camden,116028
UPRN01188003120204,Occupied,2507.32,0.00,0.00,0.00,0.00,0.00,0.00,0.00,15/05/2017,31/03/2018,THE OFFICE (KIRBY) LTD,"ROOM 2.04 2ND FLR, 31-35 KIRBY STREET, LONDON, EC1N 8TE",531400,181809,-0.107495,51.519926,Postcode Level,"(51.519926, -0.107495)",30/10/2020 11:11:03 AM,http://opendatacommunities.org/id/london-borough-council/camden,152442
UPRN05118100020006,Occupied,126735.00,2082.50,0.00,0.00,0.00,0.00,0.00,0.00,01/04/2011,31/03/2012,ARMONDI UK LTD,"ALPHA HOUSE, REGIS ROAD, LONDON, NW5 3EU",,,,,No spatial information available,,30/10/2020 11:07:40 AM,http://opendatacommunities.org/id/london-borough-council/camden,30899
UPRN00889044400005,Occupied,6170.05,0.00,0.00,0.00,0.00,150.00,0.00,0.00,01/04/2018,31/03/2019,THE STATION OFFICE NETWORK LLP,"RECEPTION & MANAGEMENT OFFICE, 1ST FLR EAST SIDE , KINGS CROSS STATION, EUSTON ROAD, LONDON, N1C 4AX",530270,183166,-0.123271,51.532382,Postcode Level,"(51.532382, -0.123271)",30/10/2020 11:11:21 AM,http://opendatacommunities.org/id/london-borough-council/camden,163378
UPRN01188002024068,Occupied,1619.51,0.00,0.00,0.00,0.00,24.25,0.00,0.00,01/02/2018,31/03/2018,HTC WOLFFKRAN LIMITED,"5TH FLR, 20-24 KIRBY STREET, LONDON, EC1N 8TS",531422,181844,-0.107191,51.520233,Postcode Level,"(51.520233, -0.107191)",30/10/2020 11:11:11 AM,http://opendatacommunities.org/id/london-borough-council/camden,157032
UPRN01175001610116,Occupied,2245.50,0.00,0.00,0.00,0.00,0.00,0.00,0.00,01/04/2020,,NINECOURT LIMITED,"INTERVIEW ROOM 1ST FLR, 16 HIGH HOLBORN, LONDON, WC1V 6BX",531066,181642,-0.112394,51.518501,Postcode Level,"(51.518501, -0.112394)",30/10/2020 11:12:44 AM,http://opendatacommunities.org/id/london-borough-council/camden,213596
UPRN01051005110005,Occupied,9773.25,0.00,0.00,0.00,0.00,0.00,0.00,0.00,01/04/2014,31/03/2015,ACADEMY OF IDEAS LTD,"1ST F, 51 FARRINGDON ROAD, LONDON, EC1M 3JB",531486,181855,-0.106239,51.520319,Postcode Level,"(51.520319, -0.106239)",30/10/2020 11:09:11 AM,http://opendatacommunities.org/id/london-borough-council/camden,84089
UPRN01126012500417,Occupied,3803.91,0.00,0.00,0.00,0.00,0.00,0.00,0.00,01/04/2019,31/10/2019,WEWORK INTERNATIONAL LTD,"RM.04C111, AVIATION HOUSE, 125-129 KINGSWAY, LONDON, WC2B 6NH",530502,181456,-0.120561,51.516961,Postcode Level,"(51.516961, -0.120561)",30/10/2020 11:12:05 AM,http://opendatacommunities.org/id/london-borough-council/camden,190908
UPRN01058004800296,Occupied,1640.47,34.59,0.00,0.00,0.00,0.00,0.00,0.00,01/04/2010,28/02/2011,AVANTA MANAGEMENT SERVICES LTD,"ROOM 3.03 3RD FLR, 48-54 CHARLOTTE STREET, LONDON, W1T 4PF",529397,181743,-0.136372,51.519795,Postcode Level,"(51.519795, -0.136372)",30/10/2020 11:07:04 AM,http://opendatacommunities.org/id/london-borough-council/camden,8164
UPRN00733002500914,Occupied,1221.00,21.00,0.00,0.00,0.00,0.00,0.00,0.00,01/04/2010,31/03/2011,VODAFONE LIMITED,"SITE (2410) AT THE RAT & PARROT, 25 PARKWAY, LONDON, NW1 7PG",528863,183820,-0.143331,51.53858,Postcode Level,"(51.53858, -0.143331)",30/10/2020 11:06:57 AM,http://opendatacommunities.org/id/london-borough-council/camden,3506
UPRN00000144616002,Occupied,5942.06,0.00,0.00,0.00,0.00,0.00,0.00,0.00,01/04/2019,31/03/2020,C H PEPPIATT ESTATE AGENTS LIMITED,"BST & GND FS, 2-4 HIGHGATE ROAD, LONDON, NW5 1HR",529008,186121,-0.140398,51.559225,Postcode Level,"(51.559225, -0.140398)",30/10/2020 11:11:46 AM,http://opendatacommunities.org/id/london-borough-council/camden,179612
UPRN01046003210036,Occupied,2644.70,0.00,2644.70,0.00,0.00,0.00,0.00,0.00,01/04/2020,,A-TEK SOLUTIONS LIMITED,"PT 3RD FLR, 32-33 HATTON GARDEN, LONDON, EC1N 8DL",531373,181811,-0.107883,51.51995,Postcode Level,"(51.51995, -0.107883)",30/10/2020 11:12:38 AM,http://opendatacommunities.org/id/london-borough-council/camden,210182
UPRN01182002710013,Void (empty),0.00,0.00,0.00,0.00,0.00,0.00,0.00,0.00,01/04/2017,31/03/2018,CHALFORDS LTD,"BST, 27 GREVILLE STREET, LONDON, EC1N 8SU",531459,181782,-0.106681,51.519668,Postcode Level,"(51.519668, -0.106681)",30/10/2020 11:10:56 AM,http://opendatacommunities.org/id/london-borough-council/camden,148320
UPRN00733000910025,Occupied,6742.51,0.00,0.00,0.00,0.00,0.00,0.00,0.00,05/07/2012,31/03/2013,SMARTFLATS LTD,"1ST 2ND & 3RD FS 9, PARKWAY, LONDON, NW1 7PG",528863,183820,-0.143331,51.53858,Postcode Level,"(51.53858, -0.143331)",30/10/2020 11:08:15 AM,http://opendatacommunities.org/id/london-borough-council/camden,51887
UPRN01175030300904,Occupied,1350.00,0.00,0.00,0.00,0.00,0.00,0.00,0.00,01/04/2012,31/03/2013,VODAFONE LIMITED,"SITE (2804) AT ABBEY NATIONAL, 303-306 HIGH HOLBORN, LONDON, WC1V 7JZ",530932,181590,-0.114344,51.518065,Postcode Level,"(51.518065, -0.114344)",30/10/2020 11:08:08 AM,http://opendatacommunities.org/id/london-borough-council/camden,47919
UPRN01046004310024,Occupied,5585.23,150.02,0.00,0.00,0.00,0.00,0.00,0.00,01/04/2016,09/05/2016,TERRAPINN LIMITED,"2ND FLR, 43 HATTON GARDEN, LONDON, EC1N 8ER",531334,181901,-0.108437,51.520766,Postcode Level,"(51.520766, -0.108437)",30/10/2020 11:10:15 AM,http://opendatacommunities.org/id/london-borough-council/camden,123937
UPRN00873010530043,Occupied,426839.40,8610.00,0.00,348359.52,0.00,0.00,0.00,0.00,01/04/2010,31/03/2011,THE ROYAL NATIONAL INSTITUTE OF BLIND PE,"BST-3RD FLRS, 105-121 JUDD STREET, LONDON, WC1H 9NE",530166,182625,-0.124995,51.527543,Postcode Level,"(51.527543, -0.124995)",30/10/2020 11:06:58 AM,http://opendatacommunities.org/id/london-borough-council/camden,4538
UPRN99120008430002,Occupied,119666.25,3338.33,0.00,0.00,0.00,0.00,0.00,0.00,01/10/2017,31/03/2018,INDUSTRIAL LIGHT & MAGIC (UK) LTD,"1ST FLR WEST, LACON HOUSE, 84 THEOBALD'S ROAD, LONDON, WC1X 8RW",,,,,No spatial information available,,30/10/2020 11:11:07 AM,http://opendatacommunities.org/id/london-borough-council/camden,154815
UPRN00013060620004,Occupied,33264.00,648.00,0.00,0.00,0.00,0.00,0.00,0.00,01/04/2013,31/03/2014,PELICAN GROUP PLC,"6A & 7, SOUTH GROVE, LONDON, N6 6BS",528433,187344,-0.148242,51.570347,Postcode Level,"(51.570347, -0.148242)",30/10/2020 11:08:22 AM,http://opendatacommunities.org/id/london-borough-council/camden,55988
UPRN00895020060041,Occupied,225780.00,3710.00,0.00,0.00,0.00,0.00,0.00,0.00,01/04/2011,31/03/2012,CARLTON COMMUNICATION LTD,"6TH F REAR, 200 GRAYS INN ROAD, LONDON, WC1X 8XZ",530931,182188,-0.114136,51.523439,Postcode Level,"(51.523439, -0.114136)",30/10/2020 11:07:29 AM,http://opendatacommunities.org/id/london-borough-council/camden,23555
UPRN00628099900021,Occupied,24714.86,767.00,0.00,0.00,0.00,600.00,0.00,0.00,01/04/2017,31/03/2018,ASSOCIATED PRESS TELEVISION NEWS,"3RD F NW THE INTERCHANGE, OVAL ROAD, LONDON, NW1 7EA",528569,183840,-0.147535,51.538829,Postcode Level,"(51.538829, -0.147535)",30/10/2020 11:10:41 AM,http://opendatacommunities.org/id/london-borough-council/camden,138955
UPRN00045031510035,Occupied,6349.24,0.00,0.00,0.00,0.00,0.00,0.00,0.00,01/04/2010,31/03/2011,STENCEL (UK) LIMITED,"BST & GND FLR, 315 FINCHLEY ROAD, LONDON, NW3 6EH",526105,185013,-0.182649,51.549924,Postcode Level,"(51.549924, -0.182649)",30/10/2020 11:06:51 AM,http://opendatacommunities.org/id/london-borough-council/camden,323
UPRN00624021800003,Occupied,16048.05,0.00,0.00,0.00,0.00,0.00,5349.35,0.00,01/07/2019,31/03/2020,BINAY INTERNATIONAL LTD,"218, CHALK FARM ROAD, LONDON, NW1 8AF",528625,184120,-0.146651,51.54133,Postcode Level,"(51.54133, -0.146651)",30/10/2020 11:12:16 AM,http://opendatacommunities.org/id/london-borough-council/camden,197229
UPRN00363015810012,Void (empty),51.80,0.85,0.00,0.00,0.00,0.00,0.00,0.00,31/03/2012,31/03/2012,RIDING HOUSE ESTATE LTD,"1ST & 2ND FLRS, 158 KENTISH TOWN ROAD, LONDON, NW5 2AG",528973,184757,-0.141403,51.546976,Postcode Level,"(51.546976, -0.141403)",30/10/2020 11:07:51 AM,http://opendatacommunities.org/id/london-borough-council/camden,37173
UPRN01231111500065,Occupied,2784.00,0.00,0.00,0.00,0.00,0.00,0.00,0.00,01/04/2015,31/03/2016,GARDEN STUDIOS BUSINESS CENTRE LIMITED,"209 2ND FLR, 11-15 BETTERTON STREET, LONDON, WC2H 9BP",530295,181224,-0.123654,51.514923,Postcode Level,"(51.514923, -0.123654)",30/10/2020 11:09:50 AM,http://opendatacommunities.org/id/london-borough-council/camden,108135
UPRN0120500111303B,Occupied,18112.50,322.00,0.00,0.00,0.00,0.00,0.00,0.00,01/04/2012,31/03/2013,UNISON,"3RD F SOUTH (UNISON) CONGRESS HOUSE, GREAT RUSSELL STREET, LONDON, WC1B 3LR",,,,,No spatial information available,,30/10/2020 11:08:10 AM,http://opendatacommunities.org/id/london-borough-council/camden,48766
UPRN01058004800155,Void (empty),55.13,1.01,0.00,0.00,56.14,0.00,0.00,0.00,01/01/2012,08/01/2012,AVANTA MANAGEMENT SERVICES LTD,"ROOM 2.01 2ND FLR, 48-54 CHARLOTTE STREET, LONDON, W1T 4PF",529397,181743,-0.136372,51.519795,Postcode Level,"(51.519795, -0.136372)",30/10/2020 11:07:49 AM,http://opendatacommunities.org/id/london-borough-council/camden,35785
UPRN00895017520102,Void (empty),571.76,16.73,0.00,0.00,0.00,0.00,0.00,0.00,01/04/2017,31/07/2017,LONDON OFFICE SARL,"ROOM 1.02 1ST FLR, 175-185 GRAYS INN ROAD, LONDON, WC1X 8UP",,,,,No spatial information available,,30/10/2020 11:10:47 AM,http://opendatacommunities.org/id/london-borough-council/camden,142096
UPRN01075002410012,Void (empty),2707.40,48.13,0.00,0.00,2755.53,0.00,0.00,0.00,13/06/2012,12/12/2012,DOMINION CORPORATE TRUSTEES LTD,"PART BASEMENT LVEL 1 NORTH CORNER, 24 GRESSE STREET, LONDON, W1T 1QN",,,,,No spatial information available,,30/10/2020 11:08:14 AM,http://opendatacommunities.org/id/london-borough-council/camden,51540
UPRN01126010335065,Void (empty),2587.20,50.40,0.00,0.00,0.00,0.00,0.00,0.00,01/04/2013,31/03/2014,GMS ESTATES LIMITED,"BST A KINGSWAY HOUSE, 103 KINGSWAY, LONDON, WC2B 6QX",530543,181396,-0.120019,51.516411,Postcode Level,"(51.516411, -0.120019)",30/10/2020 11:08:37 AM,http://opendatacommunities.org/id/london-borough-council/camden,65514
UPRN0104200100000B,Occupied,23280.00,630.50,0.00,0.00,0.00,0.00,0.00,0.00,01/04/2015,31/03/2016,PRET A MANGER (EUROPE) LIMITED,"BST & GND FS, 10 LEATHER LANE, LONDON, EC1N 7SS",531312,181697,-0.10883,51.518938,Postcode Level,"(51.518938, -0.10883)",30/10/2020 11:09:42 AM,http://opendatacommunities.org/id/london-borough-council/camden,103276
UPRN99140700250011,Occupied,0.00,0.00,0.00,0.00,0.00,0.00,0.00,0.00,01/04/2019,31/03/2020,WINLAND ACADEMY LTD,"5TH FLR ROOM 1, GRAYS INN CHAMBERS, GRAY'S INN, LONDON, WC1R 5JA",,,,,No spatial information available,,30/10/2020 11:12:13 AM,http://opendatacommunities.org/id/london-borough-council/camden,195751
UPRN01126012500418,Occupied,2432.55,0.00,0.00,0.00,0.00,0.00,0.00,0.00,01/11/2018,31/03/2019,WEWORK INTERNATIONAL LTD,"RM.04C112, AVIATION HOUSE, 125-129 KINGSWAY, LONDON, WC2B 6NH",530502,181456,-0.120561,51.516961,Postcode Level,"(51.516961, -0.120561)",30/10/2020 11:11:42 AM,http://opendatacommunities.org/id/london-borough-council/camden,177287
UPRN0100440461R002,Occupied,267.02,0.00,0.00,0.00,0.00,8.22,0.00,0.00,01/04/2018,05/04/2018,INNESCO LIMITED,"1ST F REAR, 40-46 LAMBS CONDUIT STREET, LONDON, WC1N 3LJ",530665,181965,-0.118051,51.521496,Postcode Level,"(51.521496, -0.118051)",30/10/2020 11:11:25 AM,http://opendatacommunities.org/id/london-borough-council/camden,166148
UPRN01212023920007,Occupied,0.00,0.00,0.00,0.00,0.00,0.00,0.00,0.00,01/04/2019,31/03/2020,THE UMBRELLA ROOMS LIMITED,"1ST-4TH FS, 239-241 SHAFTESBURY AVENUE, LONDON, WC2H 8EH",530110,181438,-0.12624,51.516888,Postcode Level,"(51.516888, -0.12624)",30/10/2020 11:12:09 AM,http://opendatacommunities.org/id/london-borough-council/camden,193378
UPRN01051007720405,Occupied,525.34,0.00,0.00,0.00,0.00,0.00,0.00,0.00,17/02/2020,31/03/2020,IW GROUP SERVICES (UK) LIMITED,"SUITE 405 AT 4TH FLR, 77-79 FARRINGDON ROAD, LONDON, EC1M 3JY",531456,181954,-0.10666,51.521214,Postcode Level,"(51.521214, -0.10666)",30/10/2020 11:12:22 AM,http://opendatacommunities.org/id/london-borough-council/camden,200796
UPRN0104600343012B,Occupied,1191.88,0.00,1112.42,0.00,0.00,0.00,0.00,0.00,01/10/2010,31/03/2011,LA JANA LIMITED,"3RD F 13 & 14 AT, 34-35 HATTON GARDEN, LONDON, EC1N 8DX",531359,181824,-0.108106,51.520068,Postcode Level,"(51.520068, -0.108106)",30/10/2020 11:07:17 AM,http://opendatacommunities.org/id/london-borough-council/camden,15571
UPRN01261014240031,Void (empty),2551.21,71.50,0.00,0.00,2622.71,0.00,0.00,0.00,01/04/2019,31/03/2020,WEWORK INTERNATIONAL LTD,"PHONE BOOTHS 4TH FLR, WATERHOUSE SQUARE, 142 HOLBORN, LONDON, EC1N 2NH",,,,,No spatial information available,,30/10/2020 11:12:11 AM,http://opendatacommunities.org/id/london-borough-council/camden,194620
UPRN00641014310015,Occupied,298.20,4.90,0.00,0.00,0.00,0.00,0.00,0.00,01/04/2011,31/03/2012,CLEAR CHANNEL UK LIMITED,"(ADSHEL 0107-0106), ADJ 143 CAMDEN HIGH STREET, LONDON, NW1 7JR",528958,183701,-0.14198,51.537491,Postcode Level,"(51.537491, -0.14198)",30/10/2020 11:07:26 AM,http://opendatacommunities.org/id/london-borough-council/camden,21387
UPRN00895015620005,Occupied,6816.00,0.00,0.00,0.00,0.00,0.00,0.00,0.00,01/04/2011,31/03/2012,MAGNATIM LTD,"156-158 GRAYS INN ROAD, LONDON, WC1X 8ED",530975,182052,-0.113553,51.522206,Postcode Level,"(51.522206, -0.113553)",30/10/2020 11:07:29 AM,http://opendatacommunities.org/id/london-borough-council/camden,23456
UPRN00964900900092,Occupied,113.04,0.00,0.00,0.00,0.00,0.00,0.00,0.00,01/04/2014,31/03/2015,TRANSPORT FOR LONDON,"2/610245, TAVITON STREET, LONDON, WC1H 0PF",,,,,No spatial information available,,30/10/2020 11:09:09 AM,http://opendatacommunities.org/id/london-borough-council/camden,82794
UPRN00264010400008,Void (empty),1101.21,21.45,0.00,0.00,0.00,0.00,0.00,0.00,21/10/2013,28/01/2014,WEST HAMPSTEAD STARLINE LIMITED,"104 WEST END LANE, LONDON, NW6 2LS",525537,184642,-0.190969,51.546716,Postcode Level,"(51.546716, -0.190969)",30/10/2020 11:08:49 AM,http://opendatacommunities.org/id/london-borough-council/camden,72251
UPRN00755033300155,Occupied,1440.00,0.00,0.00,0.00,0.00,0.00,0.00,0.00,01/04/2015,31/03/2016,HS1 LIMITED,"TITAN 9204 NR STATION RECEPTION, ST PANCRAS INTERNATIONAL STATION, PANCRAS ROAD, LONDON, NW1 2QP",,,,,No spatial information available,,30/10/2020 11:09:35 AM,http://opendatacommunities.org/id/london-borough-council/camden,99169
UPRN00395006400002,Void (empty),325.93,6.35,0.00,0.00,332.28,0.00,0.00,0.00,27/03/2014,31/03/2014,BARRATTS TRADING LTD - IN LIQUIDATION,"64 KILBURN HIGH ROAD, LONDON, NW6 4HJ",525443,183636,-0.192682,51.537696,Postcode Level,"(51.537696, -0.192682)",30/10/2020 11:08:56 AM,http://opendatacommunities.org/id/london-borough-council/camden,75741
UPRN00745004749128,Void (empty),812.96,18.99,0.00,0.00,831.95,0.00,0.00,0.00,13/08/2014,17/08/2014,THE REMET PROPERTY COMPANY LIMITED,"KINGS STUDIOS, 43-45 KINGS TERRACE, LONDON, NW1 0JR",529118,183581,-0.139744,51.536374,Postcode Level,"(51.536374, -0.139744)",30/10/2020 11:09:22 AM,http://opendatacommunities.org/id/london-borough-council/camden,91292
UPRN00617099900087,Occupied,6100.25,0.00,0.00,0.00,0.00,0.00,0.00,0.00,01/04/2010,31/03/2011,EAST PHOTOGRAPHIC LTD,"UNIT 8 IRON BRIDGE HOUSE, BRIDGE APPROACH, LONDON, NW1 8BD",528001,184325,-0.155569,51.543314,Postcode Level,"(51.543314, -0.155569)",30/10/2020 11:06:55 AM,http://opendatacommunities.org/id/london-borough-council/camden,2728
UPRN01073001020002,Occupied,27330.32,723.61,0.00,0.00,0.00,0.00,0.00,0.00,25/06/2019,31/03/2020,MORESAND LIMITED,"2ND FLR, 10-11 PERCY STREET, LONDON, W1T 1DN",529620,181563,-0.133226,51.518126,Postcode Level,"(51.518126, -0.133226)",30/10/2020 11:12:16 AM,http://opendatacommunities.org/id/london-borough-council/camden,197123
UPRN00948014950303,Occupied,1440.00,0.00,0.00,0.00,0.00,0.00,0.00,0.00,01/04/2018,31/03/2019,UCL HOSPITAL NHS FOUNDATION TRUST,"CAR SPACE 46 BST MAPLE HOUSE, 149 TOTTENHAM COURT ROAD, LONDON, W1T 7LB",,,,,No spatial information available,,30/10/2020 11:11:24 AM,http://opendatacommunities.org/id/london-borough-council/camden,165395
UPRN01175003436429,Void (empty),1861.68,37.35,0.00,0.00,0.00,0.00,0.00,0.00,01/04/2012,30/10/2012,ROYAL & SUN ALLIANCE INSURANCE PLC,"ROOM 4.2 4TH FLR BRACTON HOUSE, 34-36 HIGH HOLBORN, LONDON, WC1V 6YH",,,,,No spatial information available,,30/10/2020 11:08:08 AM,http://opendatacommunities.org/id/london-borough-council/camden,47492
UPRN00338004710014,Occupied,1532.96,33.75,0.00,0.00,0.00,0.00,0.00,0.00,01/09/2010,31/03/2011,C COLOUR LTD,"UNIT A, 47 ALLCROFT ROAD, LONDON, NW5 4NB",528297,185032,-0.151046,51.549601,Postcode Level,"(51.549601, -0.151046)",30/10/2020 11:07:16 AM,http://opendatacommunities.org/id/london-borough-council/camden,14829
UPRN00641022500001,Occupied,60580.00,1690.00,0.00,0.00,0.00,6000.00,0.00,0.00,01/04/2017,31/03/2018,ROKIT LIMITED,"225 CAMDEN HIGH STREET, LONDON, NW1 7BU",528814,183993,-0.143948,51.540148,Postcode Level,"(51.540148, -0.143948)",30/10/2020 11:10:42 AM,http://opendatacommunities.org/id/london-borough-council/camden,139278
UPRN01133002530067,Void (empty),368.18,11.96,0.00,0.00,380.14,0.00,0.00,0.00,22/12/2017,07/01/2018,TARGETSPACE LIMITED,"ROOM 110 1ST FLR, LION COURT AT, 25 PROCTER STREET, LONDON, WC1V 6NY",530567,181623,-0.119589,51.518446,Postcode Level,"(51.518446, -0.119589)",30/10/2020 11:11:09 AM,http://opendatacommunities.org/id/london-borough-council/camden,156172
UPRN01058004800356,Occupied,2397.59,0.00,0.00,0.00,0.00,0.00,0.00,0.00,01/04/2020,31/05/2020,AVANTA MANAGEMENT SERVICES LTD,"ROOM 4.02 4TH FLR, 48-54 CHARLOTTE STREET, LONDON, W1T 4PF",529397,181743,-0.136372,51.519795,Postcode Level,"(51.519795, -0.136372)",30/10/2020 11:12:40 AM,http://opendatacommunities.org/id/london-borough-council/camden,210832
UPRN05006015010011,Occupied,14280.00,386.75,0.00,11733.40,0.00,0.00,0.00,0.00,01/04/2018,31/03/2019,ALL ABOARD SHOPS LTD,"GND FLOOR, 150 FINCHLEY ROAD, LONDON, NW3 5HS",526272,184820,-0.180311,51.548152,Postcode Level,"(51.548152, -0.180311)",30/10/2020 11:11:35 AM,http://opendatacommunities.org/id/london-borough-council/camden,172858
UPRN01058007678069,Occupied,19874.71,416.50,0.00,0.00,0.00,0.00,0.00,0.00,01/04/2010,31/03/2011,CELTIQUE ENERGIE PETROLEUM LTD,"4TH F, 76-78 CHARLOTTE STREET, LONDON, W1T 4QW",,,,,No spatial information available,,30/10/2020 11:07:05 AM,http://opendatacommunities.org/id/london-borough-council/camden,8228
UPRN0112600889206B,Occupied,3968.80,0.00,0.00,0.00,0.00,0.00,0.00,0.00,01/04/2016,31/03/2017,COMPUTRON SOFTWARE LTD,"ROOM 206 2ND F, 88 KINGSWAY, LONDON, WC2B 6AA",530553,181488,-0.11984,51.517236,Postcode Level,"(51.517236, -0.11984)",30/10/2020 11:10:18 AM,http://opendatacommunities.org/id/london-borough-council/camden,125908
UPRN00889077700618,Occupied,3735.00,0.00,0.00,0.00,0.00,0.00,0.00,0.00,01/04/2012,31/03/2013,HSBC BANK PLC,"ATM SITE (LIFT) IN SOUTHERN TICKET HALL, (EUSTON RD EXIT) KINGS CROSS LT STATION, EUSTON ROAD, LONDON, NW1 2TB",,,,,No spatial information available,,30/10/2020 11:07:59 AM,http://opendatacommunities.org/id/london-borough-council/camden,42270
UPRN01249002310032,Occupied,0.00,0.00,0.00,0.00,0.00,0.00,0.00,0.00,01/04/2014,31/03/2015,FARRER & CO LLP,"5TH-6TH FLRS, 20-23 LINCOLNS INN FIELDS, LONDON, WC2A 3DE",,,,,No spatial information available,,30/10/2020 11:09:17 AM,http://opendatacommunities.org/id/london-borough-council/camden,88115
UPRN01058005900232,Occupied,8839.13,175.00,0.00,0.00,0.00,0.00,0.00,0.00,01/04/2010,31/03/2011,KENSHOO (UK) LIMITED,"2ND & 3RD FLRS, 59 CHARLOTTE STREET, LONDON, W1T 4PE",529400,181729,-0.13636,51.519666,Postcode Level,"(51.519666, -0.13636)",30/10/2020 11:07:04 AM,http://opendatacommunities.org/id/london-borough-council/camden,8175
UPRN01240002700068,Void (empty),6000.00,162.50,0.00,0.00,6162.50,0.00,0.00,0.00,01/04/2015,31/03/2016,UNITED GRAND LODGE OF ENGLAND,"GND FLR REAR, 27 GREAT QUEEN STREET, LONDON, WC2B 5BB",530449,181298,-0.121409,51.515552,Postcode Level,"(51.515552, -0.121409)",30/10/2020 11:09:50 AM,http://opendatacommunities.org/id/london-borough-council/camden,108353
UPRN01245000800056,Occupied,27489.00,535.50,0.00,0.00,0.00,0.00,0.00,0.00,01/04/2013,31/03/2014,CARTESIAN LTD,"2ND FLR DESCARTES HOUSE, 8 GATE STREET, LONDON, WC2H 3HP",,,,,No spatial information available,,30/10/2020 11:08:40 AM,http://opendatacommunities.org/id/london-borough-council/camden,68053
UPRN00948026600001,Occupied,91680.00,2483.00,0.00,0.00,0.00,0.00,0.00,0.00,01/04/2015,31/03/2016,CAFE ROUGE RESTAURANTS LIMITED,"266 TOTTENHAM COURT ROAD, LONDON, W1T 7RQ",529830,181438,-0.130273,51.516953,Postcode Level,"(51.516953, -0.130273)",30/10/2020 11:09:40 AM,http://opendatacommunities.org/id/london-borough-council/camden,102369
UPRN01058002400044,Occupied,2244.10,0.00,2244.10,0.00,0.00,0.00,0.00,0.00,31/08/2018,31/03/2019,ENVISION SUSTAINABILITY LIMITED,"BST, 24 CHARLOTTE STREET, LONDON, W1T 2ND",529505,181643,-0.134879,51.518869,Postcode Level,"(51.518869, -0.134879)",30/10/2020 11:11:40 AM,http://opendatacommunities.org/id/london-borough-council/camden,176037
UPRN01058007410034,Void (empty),1440.00,39.00,0.00,0.00,0.00,0.00,0.00,0.00,01/04/2018,31/03/2019,CANADA LIFE LIMITED,"CAR SPACE 6, 74A CHARLOTTE STREET, LONDON, W1T 4QJ",529375,181837,-0.13668,51.520643,Postcode Level,"(51.520643, -0.13668)",30/10/2020 11:11:27 AM,http://opendatacommunities.org/id/london-borough-council/camden,167481
UPRN00514007200019,Occupied,1098.56,0.00,421.27,0.00,0.00,0.00,0.00,0.00,01/04/2010,30/09/2010,ROCHESTER PLACE LTD,"1ST F, 74 ROCHESTER PLACE, LONDON, NW1 9JX",529079,184509,-0.139966,51.544723,Postcode Level,"(51.544723, -0.139966)",30/10/2020 11:06:55 AM,http://opendatacommunities.org/id/london-borough-council/camden,2346
UPRN01049003238004,Occupied,60522.00,1179.00,0.00,0.00,0.00,0.00,0.00,0.00,01/04/2013,31/03/2014,CLINIC LONDON LIMITED,"BST & GF, 32-38 SAFFRON HILL, LONDON, EC1N 8FH",531445,181887,-0.106844,51.520615,Postcode Level,"(51.520615, -0.106844)",30/10/2020 11:08:35 AM,http://opendatacommunities.org/id/london-borough-council/camden,64005
UPRN00295001820005,Occupied,20812.00,559.00,0.00,0.00,0.00,0.00,0.00,0.00,01/04/2016,31/03/2017,,"GND & 1ST FS, 18 ROSSLYN HILL, LONDON, NW3 1PD",526911,185509,-0.170852,51.554201,Postcode Level,"(51.554201, -0.170852)",30/10/2020 11:10:04 AM,http://opendatacommunities.org/id/london-borough-council/camden,116380
UPRN00239044400901,Occupied,1699.27,33.03,0.00,0.00,0.00,0.00,0.00,0.00,01/04/2010,15/07/2010,T-MOBILE UK LTD,"SITE (50788) ROOF OF FORDWYCH COURT, SHOOT-UP HILL, LONDON, NW2 3PH",524449,184988,-0.206529,51.550066,Postcode Level,"(51.550066, -0.206529)",30/10/2020 11:06:52 AM,http://opendatacommunities.org/id/london-borough-council/camden,1063
UPRN00840023100026,Occupied,10350.00,0.00,0.00,0.00,0.00,0.00,0.00,0.00,01/04/2012,31/03/2013,JESTICO & WHILES & ASSOCIATES LTD,"2ND F, 231-233 NORTH GOWER STREET, LONDON, NW1 2NR",529274,182551,-0.137873,51.527082,Postcode Level,"(51.527082, -0.137873)",30/10/2020 11:07:58 AM,http://opendatacommunities.org/id/london-borough-council/camden,41535
UPRN01042313703099,Void (empty),4064.60,77.25,0.00,0.00,4141.85,0.00,0.00,0.00,01/06/2010,31/03/2011,WORKSPACE MANAGEMENT LTD,"UNIT 309, 31-37 LEATHER LANE, LONDON, EC1N 7RJ",531251,181824,-0.109636,51.520095,Postcode Level,"(51.520095, -0.109636)",30/10/2020 11:07:14 AM,http://opendatacommunities.org/id/london-borough-council/camden,13654
UPRN01051002110034,Void (empty),12094.27,235.60,0.00,0.00,12329.87,0.00,0.00,0.00,30/04/2013,29/07/2013,ESPRIT UK LTD,"3RD FLR, 21 FARRINGDON ROAD, LONDON, EC1M 3HA",531518,181741,-0.105847,51.519286,Postcode Level,"(51.519286, -0.105847)",30/10/2020 11:08:43 AM,http://opendatacommunities.org/id/london-borough-council/camden,69658
UPRN01111000200094,Occupied,6407.88,113.92,0.00,0.00,0.00,0.00,0.00,0.00,01/04/2012,19/07/2012,PROSPECT PUBLISHING LIMITED,"GND & 1ST FLRS, 2 BLOOMSBURY PLACE, LONDON, WC1A 2QA",530342,181773,-0.122749,51.519847,Postcode Level,"(51.519847, -0.122749)",30/10/2020 11:08:06 AM,http://opendatacommunities.org/id/london-borough-council/camden,46388
UPRN00895006000063,Void (empty),7964.12,213.91,0.00,0.00,0.00,0.00,0.00,0.00,01/04/2016,23/06/2016,WORKSPACE GROUP PLC,"UNIT 3.03 3RD FLOOR, 60 GRAY'S INN ROAD, LONDON, WC1X 8LT",531084,181805,-0.112048,51.519963,Postcode Level,"(51.519963, -0.112048)",30/10/2020 11:10:11 AM,http://opendatacommunities.org/id/london-borough-council/camden,120983
UPRN00580000820001,Occupied,23881.77,767.00,0.00,0.00,0.00,600.00,0.00,0.00,01/04/2017,31/03/2018,HUGGLE LIMITED,"8-10 WINCHESTER ROAD, LONDON, NW3 3NT",526879,184270,-0.17176,51.543073,Postcode Level,"(51.543073, -0.17176)",30/10/2020 11:10:41 AM,http://opendatacommunities.org/id/london-borough-council/camden,138541
UPRN00744001110032,Occupied,10187.76,0.00,0.00,0.00,0.00,150.00,0.00,0.00,01/04/2018,31/03/2019,AURIGA KORE LTD,"11 PRATT MEWS, LONDON, NW1 0AD",529074,183650,-0.140327,51.537006,Postcode Level,"(51.537006, -0.140327)",30/10/2020 11:11:18 AM,http://opendatacommunities.org/id/london-borough-council/camden,161823
UPRN00895022291478,Occupied,1039.50,0.00,0.00,0.00,0.00,0.00,0.00,0.00,01/04/2013,31/03/2014,DOW JONES INTERNATIONAL LIMITED,"CPS H11 BST LEVEL B4 AT, 222-236 GRAYS INN ROAD, LONDON, WC1X 8HB",530869,182256,-0.114978,51.524066,Postcode Level,"(51.524066, -0.114978)",30/10/2020 11:08:31 AM,http://opendatacommunities.org/id/london-borough-council/camden,61609
UPRN00937002010022,Void (empty),770.05,17.98,0.00,0.00,788.03,0.00,0.00,0.00,01/03/2015,31/03/2015,10 FITZROY LTD,"1ST F, 20 FITZROY SQUARE, LONDON, W1T 6EJ",529058,182092,-0.141128,51.523008,Postcode Level,"(51.523008, -0.141128)",30/10/2020 11:09:28 AM,http://opendatacommunities.org/id/london-borough-council/camden,94813
UPRN00895001440035,Occupied,604.14,0.00,0.00,0.00,0.00,0.00,0.00,0.00,01/04/2017,30/06/2017,WEWORK INTERNATIONAL LTD,"RM 1.032 AT 1ST FLR, FOX COURT, 14 GRAY'S INN ROAD, LONDON, WC1X 8HN",531135,181691,-0.111382,51.518925,Postcode Level,"(51.518925, -0.111382)",30/10/2020 11:10:46 AM,http://opendatacommunities.org/id/london-borough-council/camden,141671
UPRN00889028630513,Occupied,2928.00,0.00,0.00,0.00,0.00,0.00,0.00,0.00,01/04/2015,31/03/2016,EUSTON TOWER SERVICED OFFICES LTD,"ROOM SO3 34TH FLR, EUSTON TOWER, EUSTON ROAD, LONDON, NW1 3DP",529180,182343,-0.139304,51.525235,Postcode Level,"(51.525235, -0.139304)",30/10/2020 11:09:37 AM,http://opendatacommunities.org/id/london-borough-council/camden,100429
UPRN01175011210132,Occupied,7348.52,0.00,0.00,0.00,0.00,0.00,0.00,0.00,01/04/2015,27/11/2015,QUADRILECT LTD,"3RD F, 112 HIGH HOLBORN, LONDON, WC1V 6JS",530584,181570,-0.119338,51.517967,Postcode Level,"(51.517967, -0.119338)",30/10/2020 11:09:47 AM,http://opendatacommunities.org/id/london-borough-council/camden,106385
UPRN05006009630001,Occupied,51341.27,644.96,0.00,0.00,0.00,0.00,0.00,0.00,01/04/2010,20/03/2011,ODEON CINEMAS LTD,"96 FINCHLEY ROAD, LONDON, NW3 5EL",526689,184196,-0.174525,51.542451,Postcode Level,"(51.542451, -0.174525)",30/10/2020 11:07:11 AM,http://opendatacommunities.org/id/london-borough-council/camden,12179
UPRN00765009120051,Occupied,5112.00,84.00,0.00,0.00,0.00,0.00,0.00,0.00,01/04/2011,31/03/2012,MARKSON PIANOS LIMITED,"GND F 5 CHESTER COURT, ALBANY STREET, LONDON, NW1 4BU",528792,182733,-0.144751,51.528828,Postcode Level,"(51.528828, -0.144751)",30/10/2020 11:07:27 AM,http://opendatacommunities.org/id/london-borough-council/camden,22149
UPRN01261014210369,Void (empty),420.62,11.30,0.00,0.00,431.92,0.00,0.00,0.00,01/06/2016,31/07/2016,WEWORK INTERNATIONAL LTD,"RM 3.069 3RD FLR, WATERHOUSE SQUARE, 142 HOLBORN, LONDON, EC1N 2NH",,,,,No spatial information available,,30/10/2020 11:10:28 AM,http://opendatacommunities.org/id/london-borough-council/camden,131361
UPRN001410001A120B,Void (empty),4655.74,121.29,0.00,0.00,0.00,0.00,0.00,0.00,01/04/2020,19/05/2020,OMNITRADE LIMITED,"1 & 2 HAMPSTEAD GATE, 1A FROGNAL, LONDON, NW3 6AL",526222,185026,-0.180958,51.550015,Postcode Level,"(51.550015, -0.180958)",30/10/2020 11:12:25 AM,http://opendatacommunities.org/id/london-borough-council/camden,201982
UPRN00636001301044,Void (empty),819.62,29.86,0.00,0.00,0.00,0.00,0.00,0.00,01/08/2017,31/03/2018,WORKLIFE CAMDEN LTD,"OFFICE 1.04 GRD FLR, 13 HAWLEY ROAD, LONDON, NW1 8NP",528861,184078,-0.143265,51.540899,Postcode Level,"(51.540899, -0.143265)",30/10/2020 11:11:05 AM,http://opendatacommunities.org/id/london-borough-council/camden,153446
UPRN00340000239995,Void (empty),317.06,6.61,0.00,0.00,323.67,0.00,0.00,0.00,15/02/2013,31/03/2013,LBC - H26405623140,"2, VICARS ROAD, LONDON, NW5 4NL",528134,185306,-0.153296,51.5521,Postcode Level,"(51.5521, -0.153296)",30/10/2020 11:08:21 AM,http://opendatacommunities.org/id/london-borough-council/camden,55179
UPRN050060106C001A,Occupied,8355.41,195.14,0.00,0.00,0.00,0.00,479.45,0.00,08/10/2014,31/03/2015,TOP TOWN LIMITED,"GND F, 106C FINCHLEY ROAD, LONDON, NW3 5JJ",526404,184602,-0.178462,51.546166,Postcode Level,"(51.546166, -0.178462)",30/10/2020 11:09:24 AM,http://opendatacommunities.org/id/london-borough-council/camden,92250
UPRN0021200312999B,Void (empty),729.33,14.21,0.00,0.00,0.00,0.00,0.00,0.00,30/12/2013,06/03/2014,WORKSPACE GROUP PLC,"2ND F UNIT SP.46, 31-34 GORDON HOUSE ROAD, LONDON, NW5 1LP",528462,185750,-0.148406,51.556016,Postcode Level,"(51.556016, -0.148406)",30/10/2020 11:08:51 AM,http://opendatacommunities.org/id/london-borough-council/camden,73171
UPRN01222001620031,Void (empty),90950.14,2463.23,0.00,0.00,93413.37,0.00,0.00,0.00,01/04/2018,30/03/2019,BEATTIE MCGUINESS BUNGAY LTD,"2ND AND 3RD FLRS, 16-18 SHORTS GARDENS, LONDON, WC2H 9AT",530095,181131,-0.126569,51.514133,Postcode Level,"(51.514133, -0.126569)",30/10/2020 11:11:33 AM,http://opendatacommunities.org/id/london-borough-council/camden,171487
UPRN00889044410212,Occupied,2940.85,0.00,0.00,0.00,0.00,0.00,0.00,0.00,01/09/2014,31/03/2015,THE STATION OFFICE NETWORK LLP,"OFFICE 1.02 EAST SIDE, KINGS CROSS STATION, EUSTON ROAD, LONDON, N1C 4AX",530270,183166,-0.123271,51.532382,Postcode Level,"(51.532382, -0.123271)",30/10/2020 11:09:22 AM,http://opendatacommunities.org/id/london-borough-council/camden,91538
UPRN00895017520101,Occupied,826.23,0.00,0.00,0.00,0.00,0.00,0.00,0.00,01/02/2016,31/03/2016,LONDON OFFICE SARL,"ROOM 1.01 1ST FLR, 175-185 GRAYS INN ROAD, LONDON, WC1X 8UP",,,,,No spatial information available,,30/10/2020 11:10:00 AM,http://opendatacommunities.org/id/london-borough-council/camden,114370
UPRN00939007210013,Occupied,1501.50,0.00,0.00,0.00,0.00,0.00,0.00,0.00,01/04/2013,31/03/2014,TELEFONICA UK LIMITED,"SITE (7894) AT THE GRAFTON ARMS, 72 GRAFTON WAY, LONDON, W1T 5DU",529223,182129,-0.138763,51.523302,Postcode Level,"(51.523302, -0.138763)",30/10/2020 11:08:32 AM,http://opendatacommunities.org/id/london-borough-council/camden,62075
UPRN01212023930013,Void (empty),31.14,0.51,0.00,0.00,0.00,0.00,0.00,0.00,24/06/2011,24/06/2011,RHINEGOLD PUBLISHING LIMITED,"BST & GND FS, 239-241 SHAFTESBURY AVENUE, LONDON, WC2H 8EH",530110,181438,-0.12624,51.516888,Postcode Level,"(51.516888, -0.12624)",30/10/2020 11:07:44 AM,http://opendatacommunities.org/id/london-borough-council/camden,32712
UPRN00737008587367,Occupied,1486.55,0.00,0.00,0.00,0.00,0.00,0.00,0.00,01/11/2014,28/02/2015,OASIS BUSINESS CENTRES LTD,"ROOM M12 AT, 85-87 BAYHAM STREET, LONDON, NW1 0AG",529058,183735,-0.140526,51.537774,Postcode Level,"(51.537774, -0.140526)",30/10/2020 11:09:24 AM,http://opendatacommunities.org/id/london-borough-council/camden,92770
UPRN99121004700003,Occupied,17126.57,274.75,0.00,0.00,0.00,0.00,0.00,0.00,01/04/2011,31/03/2012,FOXTONS LTD,"BST & GND FS, 47 HEATH STREET, LONDON, NW3 6UA",526351,185761,-0.178835,51.556591,Postcode Level,"(51.556591, -0.178835)",30/10/2020 11:07:41 AM,http://opendatacommunities.org/id/london-borough-council/camden,31430
UPRN00153099900048,Occupied,787.50,0.00,0.00,0.00,0.00,0.00,0.00,0.00,01/04/2012,31/03/2013,RURALBRIDGE LIMITED,"SPACE 48 UNDERGROUND CAR PARK, SPENCER WALK, HAMPSTEAD HIGH STREET, LONDON, NW3 1QZ",526505,185767,-0.176613,51.55661,Postcode Level,"(51.55661, -0.176613)",30/10/2020 11:07:52 AM,http://opendatacommunities.org/id/london-borough-council/camden,38000
UPRN01175003436352,Void (empty),0.00,0.00,0.00,0.00,0.00,0.00,0.00,0.00,01/04/2013,31/01/2014,UTARI INVESTMENTS CORP,"ROOM 3.4 BRACTON HOUSE, 34-36 HIGH HOLBORN, LONDON, WC1V 6YH",,,,,No spatial information available,,30/10/2020 11:08:38 AM,http://opendatacommunities.org/id/london-borough-council/camden,66100
UPRN00737008587286,Occupied,1480.22,0.00,0.00,0.00,0.00,0.00,0.00,0.00,01/04/2013,31/03/2014,OASIS BUSINESS CENTRES LTD,"ROOM M04 AT, 85-87 BAYHAM STREET, LONDON, NW1 0AG",529058,183735,-0.140526,51.537774,Postcode Level,"(51.537774, -0.140526)",30/10/2020 11:08:28 AM,http://opendatacommunities.org/id/london-borough-council/camden,59562
UPRN01261014210207,Void (empty),1825.94,49.04,0.00,0.00,1874.98,0.00,0.00,0.00,01/06/2016,31/10/2016,WEWORK INTERNATIONAL LTD,"RM 2.007 2ND FLR, WATERHOUSE SQUARE, 142 HOLBORN, LONDON, EC1N 2NH",,,,,No spatial information available,,30/10/2020 11:10:28 AM,http://opendatacommunities.org/id/london-borough-council/camden,131218
UPRN99140032800001,Occupied,20459.00,0.00,0.00,0.00,0.00,0.00,0.00,0.00,01/04/2020,,GRAND ORDER OF WATER RATS,"3RD FLR, 328 GRAY'S INN, LONDON, WC1X 8BZ",530548,182804,-0.119425,51.529063,Postcode Level,"(51.529063, -0.119425)",30/10/2020 11:12:52 AM,http://opendatacommunities.org/id/london-borough-council/camden,217532
UPRN01204011211624,Occupied,23077.00,0.00,0.00,0.00,0.00,0.00,0.00,0.00,01/04/2019,31/03/2020,EPISODE 1 VENTURES LLP,"4TH FLR, 112-116 NEW OXFORD STREET, LONDON, WC1A 1HH",529894,181411,-0.129335,51.516697,Postcode Level,"(51.516697, -0.129335)",30/10/2020 11:12:09 AM,http://opendatacommunities.org/id/london-borough-council/camden,193200
UPRN00937003900025,Void (empty),11674.33,309.10,0.00,0.00,11983.43,0.00,0.00,0.00,23/06/2019,31/03/2020,KENANA SUGAR CO LTD,"3RD FLR, 39 FITZROY SQUARE, LONDON, W1T 6EZ",529187,182043,-0.139288,51.522539,Postcode Level,"(51.522539, -0.139288)",30/10/2020 11:12:16 AM,http://opendatacommunities.org/id/london-borough-council/camden,197092
UPRN99123000130088,Void (empty),1759.60,56.74,0.00,0.00,1816.34,0.00,0.00,0.00,04/12/2017,31/03/2018,HS2 LTD,"TEA STATION 2ND FLR, 1 EUSTON SQUARE, LONDON, NW1 2EE",,,,,No spatial information available,,30/10/2020 11:11:09 AM,http://opendatacommunities.org/id/london-borough-council/camden,155932
UPRN0062600272000B,Occupied,3603.60,0.00,2522.42,0.00,0.00,0.00,0.00,0.00,01/04/2013,31/03/2014,ARDENT SECURITY LTD,"BLOCK B GND F, 27 FERDINAND STREET, LONDON, NW1 8EW",,,,,No spatial information available,,30/10/2020 11:08:27 AM,http://opendatacommunities.org/id/london-borough-council/camden,58790
UPRN01182002400139,Occupied,625.00,0.00,260.35,0.00,0.00,0.00,0.00,0.00,01/02/2011,31/03/2011,EPISERVER UK LIMITED,"ROOM 1.05 1ST FLR, 24 GREVILLE STREET, LONDON, EC1N 8SS",531486,181751,-0.106304,51.519383,Postcode Level,"(51.519383, -0.106304)",30/10/2020 11:07:20 AM,http://opendatacommunities.org/id/london-borough-council/camden,17559
UPRN01203002110025,Occupied,5976.22,0.00,0.00,0.00,0.00,0.00,0.00,0.00,01/04/2014,19/02/2015,HOLIDAY F M LIMITED,"4TH FLR, 21 DENMARK STREET, LONDON, WC2H 8NA",,,,,No spatial information available,,30/10/2020 11:09:16 AM,http://opendatacommunities.org/id/london-borough-council/camden,87059
UPRN00936000800001,Occupied,3622740.00,94380.00,0.00,0.00,0.00,0.00,0.00,0.00,01/04/2020,,ARUP GROUP LIMITED,"8 FITZROY STREET, LONDON, W1T 4BH",,,,,No spatial information available,,30/10/2020 11:12:35 AM,http://opendatacommunities.org/id/london-borough-council/camden,208269
UPRN00410019600006,Occupied,5544.00,0.00,0.00,0.00,0.00,0.00,0.00,0.00,01/04/2013,31/03/2014,PRO ARTE STRINGED INSTRUMENTS LTD,"196 BROADHURST GARDENS, LONDON, NW6 3AY",525596,184626,-0.190124,51.546559,Postcode Level,"(51.546559, -0.190124)",30/10/2020 11:08:26 AM,http://opendatacommunities.org/id/london-borough-council/camden,57948
UPRN00948023724746,Occupied,201600.00,5460.00,0.00,0.00,0.00,0.00,0.00,0.00,01/04/2018,31/03/2019,TIMOTHY JAMES & PARTNERS LIMITED,"4TH FLR, 237-247 TOTTENHAM COURT ROAD, LONDON, W1T 7QW",,,,,No spatial information available,,30/10/2020 11:11:24 AM,http://opendatacommunities.org/id/london-borough-council/camden,165570
UPRN00641028100007,Occupied,17437.50,310.00,0.00,0.00,0.00,0.00,0.00,0.00,01/04/2012,31/03/2013,FLEETMILL LIMITED,"GND F, 283 CAMDEN HIGH STREET, LONDON, NW1 7BX",528752,184082,-0.144835,51.54096,Postcode Level,"(51.54096, -0.144835)",30/10/2020 11:07:56 AM,http://opendatacommunities.org/id/london-borough-council/camden,40408
UPRN01106003100681,Occupied,252.74,0.00,0.00,0.00,0.00,0.00,0.00,0.00,31/01/2013,21/03/2013,AVANTA MANAGED OFFICES LIMITED,"ROOM 4.10 4TH FLR, 31 SOUTHAMPTON ROW, LONDON, WC1B 5HJ",530451,181647,-0.121225,51.51869,Postcode Level,"(51.51869, -0.121225)",30/10/2020 11:08:20 AM,http://opendatacommunities.org/id/london-borough-council/camden,54942
UPRN01046008410081,Void (empty),2546.78,45.32,0.00,0.00,0.00,0.00,0.00,0.00,27/04/2010,04/07/2010,UNIHEIGHTS LTD,"GND F REAR & BST, 84 HATTON GARDEN, LONDON, EC1N 8JR",531319,181788,-0.108696,51.519754,Postcode Level,"(51.519754, -0.108696)",30/10/2020 11:07:13 AM,http://opendatacommunities.org/id/london-borough-council/camden,13115
UPRN00879001300001,Occupied,26694.54,406.00,0.00,0.00,0.00,0.00,0.00,0.00,01/04/2010,31/03/2011,DE KALIPPO LTD,"13-15 ARGYLE STREET, LONDON, WC1H 8EJ",530248,182832,-0.123711,51.529386,Postcode Level,"(51.529386, -0.123711)",30/10/2020 11:06:58 AM,http://opendatacommunities.org/id/london-borough-council/camden,4581
UPRN00941000720021,Occupied,175532.50,4647.50,0.00,0.00,0.00,0.00,0.00,0.00,01/04/2019,31/03/2020,BEST AT TRAVEL PLC,"BST MEZZ & PT GND F, 7-9 WHITFIELD STREET, LONDON, W1T 2AS",529544,181666,-0.134309,51.519067,Postcode Level,"(51.519067, -0.134309)",30/10/2020 11:11:58 AM,http://opendatacommunities.org/id/london-borough-council/camden,186728
UPRN01162000310024,Occupied,16841.25,0.00,0.00,0.00,0.00,0.00,0.00,0.00,01/04/2020,,FIELD COURT CHAMBERS,"2ND FLR SOUTH, 3 GRAY'S INN SQUARE, LONDON, WC1R 5AH",530982,181808,-0.113542,51.520012,Postcode Level,"(51.520012, -0.113542)",30/10/2020 11:12:44 AM,http://opendatacommunities.org/id/london-borough-council/camden,213379
UPRN00895034430308,Occupied,3966.10,88.03,0.00,0.00,0.00,0.00,0.00,0.00,01/04/2010,31/01/2011,MWB EXECUTIVE CENTRES (GRAYS INN RD) LTD,"ROOM 3.08 3RD FLR, GRAYS INN ROAD BUSINESS CENTRE, 344-354 GRAYS INN ROAD, LONDON, WC1X 8BP",530500,182888,-0.12006,51.529831,Postcode Level,"(51.529831, -0.12006)",30/10/2020 11:07:00 AM,http://opendatacommunities.org/id/london-borough-council/camden,5622
UPRN0101300010001A,Occupied,3692.60,0.00,3692.60,0.00,0.00,0.00,0.00,0.00,01/04/2020,,MERINO HOSPITALITY LIMITED,"PT BST FRONT, 1 DOUGHTY STREET, LONDON, WC1N 2PH",530778,182129,-0.116362,51.522944,Postcode Level,"(51.522944, -0.116362)",30/10/2020 11:12:37 AM,http://opendatacommunities.org/id/london-borough-council/camden,209620
UPRN01204010310133,Occupied,257.34,4.97,0.00,0.00,0.00,0.00,0.00,0.00,22/03/2012,31/03/2012,ALMACANTAR CENTRE POINT NOMINEE NO.1 LIM,"ROOM 133  13TH FLR, CENTRE POINT, 103 NEW OXFORD STREET, LONDON, WC1A 1DD",,,,,No spatial information available,,30/10/2020 11:07:51 AM,http://opendatacommunities.org/id/london-borough-council/camden,36977
UPRN01125051900145,Void (empty),16.43,0.44,0.00,0.00,0.00,0.00,0.00,0.00,01/11/2019,01/11/2019,LABS WORLDWIDE LIMITED,"RM 4.11 AT 4TH FLR, LABS HOUSE, 5-19 BLOOMSBURY WAY, LONDON, WC1A 2BA",,,,,No spatial information available,,30/10/2020 11:12:19 AM,http://opendatacommunities.org/id/london-borough-council/camden,199216
UPRN01199011812443,Occupied,57318.00,1599.00,0.00,47133.60,0.00,150.00,0.00,0.00,01/04/2017,31/03/2018,SOHO HOUSING ASSOCIATION LTD,"4TH FLR, 118-124 CHARING CROSS ROAD, LONDON, WC2H 0JR",529889,181189,-0.129489,51.514703,Postcode Level,"(51.514703, -0.129489)",30/10/2020 11:10:57 AM,http://opendatacommunities.org/id/london-borough-council/camden,148694
UPRN0006900280000B,Occupied,15717.21,367.07,0.00,0.00,0.00,0.00,0.00,0.00,01/04/2014,21/09/2014,JASPER JAMES PUB COMPANY LTD,"THE HORSESHOE, HEATH STREET, LONDON, NW3 6TE",526379,185671,-0.178463,51.555776,Postcode Level,"(51.555776, -0.178463)",30/10/2020 11:08:57 AM,http://opendatacommunities.org/id/london-borough-council/camden,76274
UPRN01046008830286,Occupied,1086.30,0.00,1086.30,0.00,0.00,0.00,0.00,0.00,01/04/2011,30/09/2011,GEMORATTI LIMITED,"2ND F 18 AT 88-90, HATTON GARDEN, LONDON, EC1N 8PN",531330,181751,-0.108551,51.519419,Postcode Level,"(51.519419, -0.108551)",30/10/2020 11:07:33 AM,http://opendatacommunities.org/id/london-borough-council/camden,26096
UPRN01107000100006,Occupied,34989.57,1267.50,0.00,0.00,0.00,600.00,0.00,0.00,01/04/2017,31/03/2018,MULLINS & WESTLEY LTD,"PIED BULL YARD 1, GALEN PLACE, LONDON, WC1A 2JR",530255,181628,-0.124081,51.518562,Postcode Level,"(51.518562, -0.124081)",30/10/2020 11:10:54 AM,http://opendatacommunities.org/id/london-borough-council/camden,146457
UPRN00948023700015,Occupied,220950.00,5850.00,0.00,0.00,0.00,0.00,0.00,0.00,01/04/2019,31/03/2020,KNOTEL 247 TOTTENHAM COURT  LTD,"3RD F, 237-247 TOTTENHAM COURT ROAD, LONDON, W1T 7QW",,,,,No spatial information available,,30/10/2020 11:11:58 AM,http://opendatacommunities.org/id/london-borough-council/camden,187277
UPRN00353001000157,Occupied,182490.00,3555.00,0.00,0.00,0.00,0.00,0.00,0.00,01/04/2013,31/03/2014,SPRING STUDIOS LTD,"SPRING HOUSE, 10 SPRING PLACE, LONDON, NW5 3BH",528505,185079,-0.148031,51.549976,Postcode Level,"(51.549976, -0.148031)",30/10/2020 11:08:25 AM,http://opendatacommunities.org/id/london-borough-council/camden,57401
UPRN01217002110011,Occupied,15828.62,0.00,0.00,0.00,0.00,150.00,0.00,0.00,01/04/2017,31/03/2018,LIBERTINE LONDON LIMITED,"PT 1ST FLR, 21 TOWER STREET, LONDON, WC2H 9NN",,,,,No spatial information available,,30/10/2020 11:10:58 AM,http://opendatacommunities.org/id/london-borough-council/camden,149365
UPRN00274000220007,Occupied,43310.00,711.67,0.00,0.00,0.00,0.00,0.00,0.00,01/12/2011,31/03/2012,DEVONSHIRE HOUSE SCHOOL,"2-6 ARKWRIGHT ROAD, LONDON, NW3 6AE",526427,185387,-0.177873,51.553213,Postcode Level,"(51.553213, -0.177873)",30/10/2020 11:07:48 AM,http://opendatacommunities.org/id/london-borough-council/camden,35319
UPRN00895001400354,Void (empty),1089.00,29.25,0.00,0.00,1118.25,0.00,0.00,0.00,01/04/2016,31/03/2017,CLARE REAL ESTATE (14 GRAY'S INN ROAD) L,"CAR SPACE NO 13 FOX COURT, 14 GRAYS INN ROAD, LONDON, WC1X 8HN",531135,181691,-0.111382,51.518925,Postcode Level,"(51.518925, -0.111382)",30/10/2020 11:10:10 AM,http://opendatacommunities.org/id/london-borough-council/camden,120651
UPRN99084002200017,Void (empty),1233.53,33.41,0.00,0.00,1266.94,0.00,0.00,0.00,14/08/2018,31/12/2018,MORTIMER FACILITIES MANAGEMENT LIMITED,"2ND FLR SUITE 9 AT, 22 BLOOMSBURY SQUARE, LONDON, WC1A 2NS",530281,181728,-0.12367,51.519455,Postcode Level,"(51.519455, -0.12367)",30/10/2020 11:11:40 AM,http://opendatacommunities.org/id/london-borough-council/camden,175900
UPRN00857700228167,Occupied,4250.58,0.00,0.00,0.00,0.00,0.00,0.00,0.00,01/04/2017,31/03/2018,LKB INVESTMENTS LTD,"ROOM 816 8TH FLR, ENDSLEIGH COURT, UPPER WOBURN PLACE, LONDON, WC1H OHQ",,,,,No spatial information available,,30/10/2020 11:10:45 AM,http://opendatacommunities.org/id/london-borough-council/camden,140800
UPRN00751000300046,Occupied,62356.64,1169.00,0.00,0.00,0.00,0.00,0.00,0.00,01/04/2011,31/03/2012,FORWARD INTERNET GROUP LTD,"2ND FLR CENTRO 3, MANDELA STREET, LONDON, NW1 0DU",529300,183766,-0.137053,51.537995,Postcode Level,"(51.537995, -0.137053)",30/10/2020 11:07:26 AM,http://opendatacommunities.org/id/london-borough-council/camden,21994
UPRN01249005556078,Occupied,18112.50,322.00,0.00,0.00,0.00,0.00,0.00,0.00,01/04/2012,31/03/2013,HARRIS CARTIER LIMITED - IN LIQUIDATION,"7TH FLR SOUTH EAST QUEENS HOUSE, 55-56 LINCOLNS INN FIELDS, LONDON, WC2A 3LJ",530653,181301,-0.118444,51.515534,Postcode Level,"(51.515534, -0.118444)",30/10/2020 11:08:11 AM,http://opendatacommunities.org/id/london-borough-council/camden,49460
UPRN01125001010007,Occupied,7320.00,0.00,0.00,0.00,0.00,0.00,0.00,0.00,01/04/2018,31/03/2019,THE OFFICE GROUP PROPERTIES LIMITED,"MEETING ROOM 1.M04 1ST FLR, 10 BLOOMSBURY WAY, LONDON, WC1A 2SH",,,,,No spatial information available,,30/10/2020 11:11:29 AM,http://opendatacommunities.org/id/london-borough-council/camden,168750
UPRN99123000100733,Occupied,1633.45,0.00,0.00,0.00,0.00,0.00,0.00,0.00,02/01/2014,31/03/2014,THE OFFICE GROUP PROPERTIES LIMITED,"ROOM 7.04   7TH FLOOR, 1 EUSTON SQUARE, LONDON, NW1 2EE",,,,,No spatial information available,,30/10/2020 11:08:51 AM,http://opendatacommunities.org/id/london-borough-council/camden,73370
UPRN01058008300031,Void (empty),73.13,1.44,0.00,0.00,74.57,0.00,0.00,0.00,24/12/2010,31/12/2010,MORETVICAR LIMITED,"3RD F, 83 CHARLOTTE STREET, LONDON, W1T 4PR",529357,181801,-0.136953,51.520323,Postcode Level,"(51.520323, -0.136953)",30/10/2020 11:07:19 AM,http://opendatacommunities.org/id/london-borough-council/camden,16871
UPRN00624001800098,Occupied,1278.00,21.00,0.00,0.00,0.00,0.00,0.00,0.00,01/04/2011,31/03/2012,TELEFONICA UK LIMITED,"SITE (7243) AT, 18 CHALK FARM ROAD, LONDON, NW1 8AG",528650,184222,-0.146254,51.542241,Postcode Level,"(51.542241, -0.146254)",30/10/2020 11:07:25 AM,http://opendatacommunities.org/id/london-borough-council/camden,21087
UPRN01046010011326,Occupied,361.75,5.94,0.00,0.00,0.00,0.00,0.00,0.00,01/04/2011,12/05/2011,GEM ROAD LIMITED,"1ST F 123A AT, 100 HATTON GARDEN, LONDON, EC1N 8NX",531359,181654,-0.108169,51.518541,Postcode Level,"(51.518541, -0.108169)",30/10/2020 11:07:33 AM,http://opendatacommunities.org/id/london-borough-council/camden,26141
UPRN00883001200048,Occupied,1425.50,0.00,0.00,0.00,0.00,0.00,0.00,0.00,01/04/2017,31/03/2018,JLR STAR LTD,"BST TANKERTON WORKS, 12 ARGYLE WALK, LONDON, WC1H 8HA",530370,182719,-0.122021,51.52834,Postcode Level,"(51.52834, -0.122021)",30/10/2020 11:10:45 AM,http://opendatacommunities.org/id/london-borough-council/camden,141030
UPRN002970000100991,Occupied,1547.88,0.00,0.00,0.00,0.00,0.00,0.00,0.00,29/01/2013,31/03/2013,ARQIVA LIMITED,"ARQIVA (140868) ROOFTOP, ROYAL FREE HOSPITAL, POND STREET, LONDON, NW3 2AD",,,,,No spatial information available,,30/10/2020 11:08:20 AM,http://opendatacommunities.org/id/london-borough-council/camden,54899
UPRN00416001000163,Occupied,787.50,0.00,0.00,0.00,0.00,0.00,0.00,0.00,01/04/2012,31/03/2013,IMPERIAL RESOURCES SA,"GARAGE NO 6 AT, 10 CANFIELD PLACE, LONDON, NW6 3BT",526207,184709,-0.181288,51.547169,Postcode Level,"(51.547169, -0.181288)",30/10/2020 11:07:54 AM,http://opendatacommunities.org/id/london-borough-council/camden,39302
UPRN00854900900098,Occupied,114.17,0.00,0.00,0.00,0.00,0.00,0.00,0.00,01/04/2017,31/03/2018,TRANSPORT FOR LONDON,"2/610260, DORIC WAY, LONDON, NW1 1LH",529671,182791,-0.13204,51.52915,Postcode Level,"(51.52915, -0.13204)",30/10/2020 11:10:44 AM,http://opendatacommunities.org/id/london-borough-council/camden,140675
UPRN01115000500108,Occupied,1104.00,0.00,0.00,0.00,0.00,0.00,0.00,0.00,01/12/2015,31/03/2016,SOUTHAMPTON PLACE BUSINESS CENTRE LTD,"MACKLIN SUITE 2ND FL, 5 SOUTHAMPTON PLACE, LONDON, WC1A 2DA",530421,181591,-0.121704,51.518192,Postcode Level,"(51.518192, -0.121704)",30/10/2020 11:09:58 AM,http://opendatacommunities.org/id/london-borough-council/camden,113277
UPRN012040103I7991,Occupied,1386.00,0.00,0.00,0.00,0.00,0.00,0.00,0.00,01/04/2013,31/03/2014,C B I,"BST 142 AT 103, NEW OXFORD STREET, LONDON, WC1A 1DD",,,,,No spatial information available,,30/10/2020 11:08:39 AM,http://opendatacommunities.org/id/london-borough-council/camden,67374
UPRN00331899020004,Occupied,45908.00,1196.00,0.00,0.00,0.00,0.00,0.00,0.00,01/04/2020,,LBC-G36204623140,"GOSPEL OAK NURSERY, LISMORE CIRCUS, LONDON, NW5 4QD",528086,185349,-0.153972,51.552498,Postcode Level,"(51.552498, -0.153972)",30/10/2020 11:12:26 AM,http://opendatacommunities.org/id/london-borough-council/camden,202775
UPRN0112600644254B,Void (empty),581.20,11.84,0.00,0.00,593.04,0.00,0.00,0.00,01/04/2010,09/01/2011,DAEJAN INVESTMENTS (GROVE HALL) LIMITED,"2ND F 254A AFRICA HOUSE, 64-78 KINGSWAY, LONDON, WC2B 6AH",530579,181467,-0.119474,51.517041,Postcode Level,"(51.517041, -0.119474)",30/10/2020 11:07:07 AM,http://opendatacommunities.org/id/london-borough-council/camden,9353
UPRN01125001000004,Occupied,456.63,0.00,0.00,0.00,0.00,0.00,0.00,0.00,01/04/2019,31/03/2020,THE OFFICE GROUP PROPERTIES LIMITED,"PHONE BOOTH 1.B 1ST FLR, 10 BLOOMSBURY WAY, LONDON, WC1A 2SH",,,,,No spatial information available,,30/10/2020 11:12:04 AM,http://opendatacommunities.org/id/london-borough-council/camden,190547
UPRN01125004000006,Occupied,893.46,0.00,0.00,0.00,0.00,0.00,0.00,0.00,24/02/2020,31/03/2020,INVESTSUN LTD,"40 BLOOMSBURY WAY, LONDON, WC1A 2SE",530184,181507,-0.125148,51.517491,Postcode Level,"(51.517491, -0.125148)",30/10/2020 11:12:22 AM,http://opendatacommunities.org/id/london-borough-council/camden,200856
UPRN00045013700905,Occupied,5428.71,93.37,0.00,0.00,0.00,0.00,0.00,0.00,30/08/2010,31/03/2011,MOBILE BROADBAND NETWORK LTD,"SITE (98337) ROOF OF CENTRE HEIGHTS, 137 FINCHLEY ROAD, LONDON, NW3 6JG",526607,184345,-0.175653,51.543808,Postcode Level,"(51.543808, -0.175653)",30/10/2020 11:07:16 AM,http://opendatacommunities.org/id/london-borough-council/camden,14799
UPRN00197000030013,Occupied,20400.00,552.50,0.00,16762.00,0.00,0.00,0.00,0.00,01/04/2015,31/03/2016,,"GND F 3 HEATHGATE, AGINCOURT ROAD, LONDON, NW3 2NT",527756,185469,-0.158685,51.553651,Postcode Level,"(51.553651, -0.158685)",30/10/2020 11:09:31 AM,http://opendatacommunities.org/id/london-borough-council/camden,96172
UPRN00765007080002,Occupied,15712.00,0.00,0.00,0.00,0.00,150.00,5187.33,0.00,01/04/2019,31/03/2020,MARKSON PIANOS LIMITED,"GND F 7-8 CHESTER COURT, ALBANY STREET, LONDON, NW1 4BU",528792,182733,-0.144751,51.528828,Postcode Level,"(51.528828, -0.144751)",30/10/2020 11:11:53 AM,http://opendatacommunities.org/id/london-borough-council/camden,183740
UPRN0098100619999A,Occupied,4583.77,78.84,0.00,0.00,0.00,0.00,0.00,0.00,10/09/2010,31/03/2011,MOBILE BROADBAND NETWORK LTD,"SITE 98119 ROOF OF THE IMPERIAL HOTEL, 61-66 RUSSELL SQUARE, LONDON, WC1B 5BA",530244,182037,-0.124089,51.52224,Postcode Level,"(51.52224, -0.124089)",30/10/2020 11:07:16 AM,http://opendatacommunities.org/id/london-borough-council/camden,14980
UPRN00618000700163,Occupied,22171.80,600.49,0.00,0.00,0.00,0.00,0.00,0.00,01/04/2015,31/10/2015,SAHARA LTD,"UNIT 13, UTOPIA VILLAGE, 7 CHALCOT ROAD, LONDON, NW1 8LH",528197,183970,-0.152874,51.54008,Postcode Level,"(51.54008, -0.152874)",30/10/2020 11:09:33 AM,http://opendatacommunities.org/id/london-borough-council/camden,97991
UPRN01204010301643,Occupied,210.68,3.48,0.00,0.00,0.00,0.00,0.00,0.00,01/04/2011,07/04/2011,TARGETSPACE LTD,"ROOM 164 16TH FLR CENTRE POINT, 103 NEW OXFORD STREET, LONDON, WC1A 1DD",,,,,No spatial information available,,30/10/2020 11:07:38 AM,http://opendatacommunities.org/id/london-borough-council/camden,29504
UPRN0074200631009A,Occupied,18600.00,503.75,0.00,0.00,0.00,0.00,0.00,0.00,01/04/2015,31/03/2016,WASABI CO. LTD,"UNIT 7 AT 63, PRATT STREET, LONDON, NW1 0DP",529268,183862,-0.137453,51.538867,Postcode Level,"(51.538867, -0.137453)",30/10/2020 11:09:35 AM,http://opendatacommunities.org/id/london-borough-council/camden,99072
UPRN00948003930083,Occupied,102102.00,1989.00,0.00,0.00,0.00,0.00,0.00,0.00,01/04/2013,31/03/2014,DIGITAL UK LTD,"8TH F THE MET BUILDING, 39-45 TOTTENHAM COURT ROAD, LONDON, W1T 2EA",529626,181647,-0.133109,51.518879,Postcode Level,"(51.518879, -0.133109)",30/10/2020 11:08:32 AM,http://opendatacommunities.org/id/london-borough-council/camden,62186
UPRN01046001930024,Void (empty),481.34,12.74,0.00,0.00,494.08,0.00,0.00,0.00,12/11/2019,28/01/2020,HEADSPACE PROPERTIES LIMITED,"GND FLR REAR (ROOM 2), TREASURE HOUSE, 19-21 HATTON GARDEN, LONDON, EC1N 8BA",531385,181727,-0.107768,51.519191,Postcode Level,"(51.519191, -0.107768)",30/10/2020 11:12:20 AM,http://opendatacommunities.org/id/london-borough-council/camden,199546
UPRN00895010710018,Occupied,33412.46,904.92,0.00,27453.90,0.00,0.00,0.00,0.00,18/04/2015,31/03/2016,MICROBIOLOGY SOCIETY,"GND F, 107 GRAYS INN ROAD, LONDON, WC1X 8TZ",530855,182196,-0.115228,51.523528,Postcode Level,"(51.523528, -0.115228)",30/10/2020 11:09:53 AM,http://opendatacommunities.org/id/london-borough-council/camden,110105
UPRN01204010310016,Void (empty),1742.70,40.70,0.00,0.00,1783.40,0.00,0.00,0.00,01/04/2014,31/03/2015,ALMACANTAR CENTRE POINT NOMINEE NO.1 LIM,"OFFICE MEZZ FLR BETWEEN GND & 1ST FLRS, CENTREPOINT, 103 NEW OXFORD STREET, LONDON, WC1A 1DD",,,,,No spatial information available,,30/10/2020 11:09:16 AM,http://opendatacommunities.org/id/london-borough-council/camden,87301
UPRN00493007600005,Occupied,6137.50,0.00,0.00,0.00,0.00,0.00,2045.83,0.00,01/10/2019,31/03/2020,CAPITALBASE LIMITED,"GEORGE THE FOURTH, 76 WILLES ROAD, LONDON, NW5 3DL",528724,184908,-0.144936,51.548389,Postcode Level,"(51.548389, -0.144936)",30/10/2020 11:12:18 AM,http://opendatacommunities.org/id/london-borough-council/camden,198711
UPRN00895006510018,Occupied,3866.70,0.00,0.00,0.00,0.00,0.00,0.00,0.00,01/04/2016,09/09/2016,FISHER LONDON LTD,"BST & GND FS, 65 GRAYS INN ROAD, LONDON, WC1X 8TL",530924,182078,-0.114278,51.522452,Postcode Level,"(51.522452, -0.114278)",30/10/2020 11:10:11 AM,http://opendatacommunities.org/id/london-borough-council/camden,121034
UPRN00889168900031,Occupied,4468.10,0.00,0.00,0.00,0.00,0.00,0.00,0.00,01/04/2019,31/03/2020,BE OFFICES EUSTON LIMITED,"SUITE 914 9TH FLR, EVERGREEN HOUSE, 160 EUSTON ROAD, LONDON, NW1 2DT",529790,182652,-0.130377,51.527874,Postcode Level,"(51.527874, -0.130377)",30/10/2020 11:11:55 AM,http://opendatacommunities.org/id/london-borough-council/camden,185194
UPRN90363077700033,Occupied,12283.42,286.87,0.00,0.00,0.00,0.00,0.00,0.00,01/04/2014,28/02/2015,STREAM UK MEDIA SERVICES LIMITED,"3RD FLR UNIT 1 WATER LANE, KENTISH TOWN ROAD, LONDON, NW1 8NL",528897,184078,-0.142746,51.540891,Postcode Level,"(51.540891, -0.142746)",30/10/2020 11:09:18 AM,http://opendatacommunities.org/id/london-borough-council/camden,88754
UPRN00981004400125,Occupied,509.45,0.00,466.99,0.00,0.00,0.00,0.00,0.00,01/03/2020,31/03/2020,DYNOLABS ASSET MANAGEMENT LTD,"SUITE 13 3RD FLR, 44 RUSSELL SQUARE, LONDON, WC1B 4JB",530387,181703,-0.122152,51.519206,Postcode Level,"(51.519206, -0.122152)",30/10/2020 11:12:23 AM,http://opendatacommunities.org/id/london-borough-council/camden,200958
UPRN01126012522053,Occupied,3892.20,0.00,0.00,0.00,0.00,0.00,0.00,0.00,01/04/2020,,WEWORK INTERNATIONAL LTD,"RM.02A115, AVIATION HOUSE, 125-129 KINGSWAY, LONDON, WC2B 6NH",530502,181456,-0.120561,51.516961,Postcode Level,"(51.516961, -0.120561)",30/10/2020 11:12:43 AM,http://opendatacommunities.org/id/london-borough-council/camden,212802
UPRN00989090020008,Occupied,1889.16,0.00,0.00,0.00,0.00,0.00,0.00,0.00,01/04/2014,31/05/2014,RENOIR CINEMA LTD,"CURZON BLOOMSBURY, BRUNSWICK CENTRE, LONDON, WC1N 1AW",530302,182251,-0.123174,51.52415,Postcode Level,"(51.52415, -0.123174)",30/10/2020 11:09:09 AM,http://opendatacommunities.org/id/london-borough-council/camden,83037
UPRN00889168900002,Occupied,4713.60,0.00,0.00,0.00,0.00,0.00,0.00,0.00,01/04/2019,31/03/2020,BE OFFICES EUSTON LIMITED,"SUITE 802 8TH FLR, EVERGREEN HOUSE, 160 EUSTON ROAD, LONDON, NW1 2DT",529790,182652,-0.130377,51.527874,Postcode Level,"(51.527874, -0.130377)",30/10/2020 11:11:55 AM,http://opendatacommunities.org/id/london-borough-council/camden,185168
UPRN01046005810019,Void (empty),1721.85,45.59,0.00,0.00,0.00,0.00,0.00,0.00,21/12/2019,23/01/2020,MING YUAN LTD,"BST & GND F, 58 HATTON GARDEN, LONDON, EC1N 8LS",531291,181962,-0.109034,51.521324,Postcode Level,"(51.521324, -0.109034)",30/10/2020 11:12:21 AM,http://opendatacommunities.org/id/london-borough-council/camden,200071
UPRN00895008500016,Occupied,1382.52,22.72,0.00,0.00,0.00,0.00,0.00,0.00,01/04/2011,03/04/2011,WARNER BROS. TELEVISION PRODUCTION UK LI,"85 GRAYS INN ROAD, LONDON, WC1X 8AA",531036,181918,-0.112724,51.520988,Postcode Level,"(51.520988, -0.112724)",30/10/2020 11:07:28 AM,http://opendatacommunities.org/id/london-borough-council/camden,23384
UPRN01106000110023,Occupied,10188.43,0.00,0.00,0.00,0.00,0.00,0.00,0.00,01/04/2013,31/03/2014,FARMHOLD INVESTMENTS LIMITED,"MANAGEMENT SUITE PT BST, 1 SOUTHAMPTON ROW, LONDON, WC1B 5HA",530461,181598,-0.121099,51.518247,Postcode Level,"(51.518247, -0.121099)",30/10/2020 11:08:36 AM,http://opendatacommunities.org/id/london-borough-council/camden,64856
UPRN00948014950248,Occupied,1440.00,0.00,0.00,0.00,0.00,0.00,0.00,0.00,01/04/2015,31/03/2016,UCL HOSPITAL NHS FOUNDATION TRUST,"CAR SPACE 40 BST MAPLE HOUSE, 149 TOTTENHAM COURT ROAD, LONDON, W1T 7LB",,,,,No spatial information available,,30/10/2020 11:09:40 AM,http://opendatacommunities.org/id/london-borough-council/camden,102136
UPRN00642003846774,Void (empty),736.50,19.50,0.00,0.00,756.00,0.00,0.00,0.00,01/04/2019,31/03/2020,CAMDEN LOCK BUSINESS CENTRE LTD,"CAR SPACE 77 BST GILBEY HOUSE, 38-46 JAMESTOWN ROAD, LONDON, NW1 7BY",528573,183991,-0.147448,51.540183,Postcode Level,"(51.540183, -0.147448)",30/10/2020 11:11:52 AM,http://opendatacommunities.org/id/london-borough-council/camden,183005
UPRN00895001400315,Void (empty),1036.52,24.21,0.00,0.00,1060.73,0.00,0.00,0.00,01/04/2014,23/03/2015,THE TRUSTEES OF ROCKSPRING HANOVER P.U.T,"CAR SPACE NO 31 FOX COURT, 14 GRAYS INN ROAD, LONDON, WC1X 8HN",531135,181691,-0.111382,51.518925,Postcode Level,"(51.518925, -0.111382)",30/10/2020 11:09:06 AM,http://opendatacommunities.org/id/london-borough-council/camden,81115
UPRN01253000810032,Occupied,8778.00,0.00,0.00,0.00,0.00,0.00,0.00,0.00,01/04/2013,31/03/2014,NEW SQUARE CHAMBERS LIMITED,"1ST F, 8 OLD SQUARE, LONDON, WC2A 3SP",530983,181436,-0.113666,51.516669,Postcode Level,"(51.516669, -0.113666)",30/10/2020 11:08:41 AM,http://opendatacommunities.org/id/london-borough-council/camden,68191
UPRN00732000520001,Occupied,36334.00,962.00,0.00,0.00,0.00,0.00,0.00,0.00,01/04/2019,31/03/2020,WHITEZIP LIMITED,"GND FLR REAR, 5-6 UNDERHILL STREET, LONDON, NW1 7HS",528900,183733,-0.142829,51.53779,Postcode Level,"(51.53779, -0.142829)",30/10/2020 11:11:52 AM,http://opendatacommunities.org/id/london-borough-council/camden,183317
UPRN01058004800283,Occupied,7392.00,0.00,0.00,0.00,0.00,0.00,0.00,0.00,01/04/2013,31/03/2014,AVANTA MANAGEMENT SERVICES LTD,"ROOM 3.02 3RD FLR, 48-54 CHARLOTTE STREET, LONDON, W1T 4PF",529397,181743,-0.136372,51.519795,Postcode Level,"(51.519795, -0.136372)",30/10/2020 11:08:35 AM,http://opendatacommunities.org/id/london-borough-council/camden,64209
UPRN00969000400010,Occupied,1463.99,0.00,0.00,0.00,0.00,0.00,0.00,0.00,29/11/2018,12/02/2019,BINFIELD PLACE LIMITED,"LWR GND FLR OFFICE 1 AT, 4 ENDSLEIGH STREET, LONDON, WC1H 0DS",529767,182470,-0.130775,51.526243,Postcode Level,"(51.526243, -0.130775)",30/10/2020 11:11:43 AM,http://opendatacommunities.org/id/london-borough-council/camden,177725
UPRN01203002110109,Occupied,1732.50,0.00,0.00,0.00,0.00,0.00,0.00,0.00,01/04/2013,31/03/2014,SAXOPHONES LTD,"BST FS, 21 DENMARK STREET, LONDON, WC2H 8NA",,,,,No spatial information available,,30/10/2020 11:08:39 AM,http://opendatacommunities.org/id/london-borough-council/camden,67071
UPRN00395010600018,Occupied,536.76,0.00,0.00,0.00,0.00,0.00,0.00,0.00,01/04/2012,01/11/2012,RESTCARE LTD,"BST FLR, 108 KILBURN HIGH ROAD, LONDON, NW6 4HY",525305,183839,-0.194574,51.539553,Postcode Level,"(51.539553, -0.194574)",30/10/2020 11:07:54 AM,http://opendatacommunities.org/id/london-borough-council/camden,39103
UPRN01261014210254,Occupied,313.14,0.00,0.00,0.00,0.00,0.00,0.00,0.00,01/04/2019,30/06/2019,WEWORK INTERNATIONAL LTD,"RM 2.054 2ND FLR, WATERHOUSE SQUARE, 142 HOLBORN, LONDON, EC1N 2NH",,,,,No spatial information available,,30/10/2020 11:12:11 AM,http://opendatacommunities.org/id/london-borough-council/camden,194482
UPRN01012001400001,Occupied,8071.32,213.70,0.00,0.00,0.00,0.00,0.00,0.00,01/04/2019,02/06/2019,TOPHAT CORPORATE LIMITED,"14 GREAT JAMES STREET, LONDON, WC1N 3DP",530747,181988,-0.116861,51.521684,Postcode Level,"(51.521684, -0.116861)",30/10/2020 11:12:00 AM,http://opendatacommunities.org/id/london-borough-council/camden,187903
UPRN00941004000015,Void (empty),23678.63,420.95,0.00,0.00,0.00,0.00,0.00,0.00,21/12/2012,27/03/2013,ESTATES & AGENCY PROPERTIES LTD,"1ST F, 40 WHITFIELD STREET, LONDON, W1T 2RH",529498,181811,-0.134893,51.520383,Postcode Level,"(51.520383, -0.134893)",30/10/2020 11:08:19 AM,http://opendatacommunities.org/id/london-borough-council/camden,54280
UPRN00743004330054,Occupied,5032.75,0.00,0.00,0.00,0.00,0.00,0.00,0.00,01/04/2019,31/03/2020,THE PACKSHOT COMPANY LTD,"UNIT 6 AT, 43 CAROL STREET, LONDON, NW1 0HT",529087,183871,-0.140084,51.538987,Postcode Level,"(51.538987, -0.140084)",30/10/2020 11:11:53 AM,http://opendatacommunities.org/id/london-borough-council/camden,183546
UPRN00895034430116,Occupied,1331.00,0.00,0.00,0.00,0.00,0.00,0.00,0.00,01/04/2016,31/03/2017,MWB EXECUTIVE CENTRES (GRAYS INN RD) LTD,"ROOM 1.16 1ST FLR, GRAYS INN ROAD BUSINESS CENTRE, 344-354 GRAYS INN ROAD, LONDON, WC1X 8BP",530500,182888,-0.12006,51.529831,Postcode Level,"(51.529831, -0.12006)",30/10/2020 11:10:11 AM,http://opendatacommunities.org/id/london-borough-council/camden,121603
UPRN00794779420005,Occupied,3285.71,0.00,0.00,0.00,0.00,0.00,0.00,0.00,03/08/2017,31/03/2018,GOALSAVE SERVICES LTD,"7 TO 11, CHALTON STREET, LONDON, NW1 1JD",529843,182769,-0.129596,51.528911,Postcode Level,"(51.528911, -0.129596)",30/10/2020 11:11:05 AM,http://opendatacommunities.org/id/london-borough-council/camden,153621
UPRN01063000235027,Occupied,73628.00,2054.00,0.00,0.00,0.00,8000.00,0.00,0.00,01/04/2017,31/03/2018,SINCLAIR IS PHARMA PLC,"1ST F WHITFIELD COURT, 30-32 WHITFIELD STREET, LONDON, W1T 2RG",529544,181736,-0.134283,51.519696,Postcode Level,"(51.519696, -0.134283)",30/10/2020 11:10:52 AM,http://opendatacommunities.org/id/london-borough-council/camden,145595
UPRN00447002800029,Void (empty),0.00,0.00,0.00,0.00,0.00,0.00,0.00,0.00,01/04/2011,08/08/2011,PRINGLETON LTD,"(INCL GND FLR 2 PRIMROSE GARDENS), BST FLR, 28 ENGLAND'S LANE, LONDON, NW3 4UE",527515,184605,-0.162473,51.545941,Postcode Level,"(51.545941, -0.162473)",30/10/2020 11:07:24 AM,http://opendatacommunities.org/id/london-borough-council/camden,20453
UPRN01143003800905,Occupied,1452.00,0.00,0.00,0.00,0.00,0.00,0.00,0.00,01/04/2016,31/03/2017,ORANGE PCS LTD,"SITE (GLN7063) AT THE ENTERPRISE, 38 RED LION STREET, LONDON, WC1R 4PN",530717,181830,-0.117352,51.520271,Postcode Level,"(51.520271, -0.117352)",30/10/2020 11:10:19 AM,http://opendatacommunities.org/id/london-borough-council/camden,126091
UPRN0094801580000B,Occupied,90000.00,1600.00,0.00,0.00,0.00,0.00,0.00,0.00,01/04/2012,31/03/2013,TOTTENHAM COURT ROAD LTD,"158 TOTTENHAM COURT ROAD, LONDON, W1T 7NH",529367,182148,-0.136681,51.523439,Postcode Level,"(51.523439, -0.136681)",30/10/2020 11:08:02 AM,http://opendatacommunities.org/id/london-borough-council/camden,43791
UPRN01075002830038,Occupied,41961.00,689.50,0.00,0.00,0.00,0.00,0.00,0.00,01/04/2011,31/03/2012,WPN CHAMELEON LIMITED,"2ND FLR, 28-30 GRESSE STREET, LONDON, W1T 1QR",529616,181519,-0.1333,51.517731,Postcode Level,"(51.517731, -0.1333)",30/10/2020 11:07:34 AM,http://opendatacommunities.org/id/london-borough-council/camden,26750
UPRN06630000300007,Occupied,11640.00,0.00,0.00,0.00,0.00,0.00,0.00,0.00,01/04/2015,31/03/2016,WILLOW HAIR LIMITED,"3 HAMPSTEAD LANE, LONDON, N6 4RS",528265,187469,-0.150619,51.571509,Postcode Level,"(51.571509, -0.150619)",30/10/2020 11:09:51 AM,http://opendatacommunities.org/id/london-borough-council/camden,109235
UPRN0043300231001B,Occupied,78240.00,2119.00,0.00,64287.20,0.00,150.00,0.00,0.00,01/04/2018,31/03/2019,THE HALL SCHOOL HAMPSTEAD LTD,"THE HALL SCHOOL, 23 CROSSFIELD ROAD, LONDON, NW3 4NS",526877,184591,-0.171673,51.545959,Postcode Level,"(51.545959, -0.171673)",30/10/2020 11:11:15 AM,http://opendatacommunities.org/id/london-borough-council/camden,159995
UPRN008950100G100B,Occupied,22385.00,601.25,0.00,0.00,0.00,0.00,0.00,0.00,01/04/2016,31/03/2017,PRET A MANGER (EUROPE) LIMITED,"BST PART & GND FLOOR, 100 GRAYS INN ROAD, LONDON, WC1X 8AL",531023,181949,-0.112899,51.52127,Postcode Level,"(51.52127, -0.112899)",30/10/2020 11:10:11 AM,http://opendatacommunities.org/id/london-borough-council/camden,121107
UPRN01261014210266,Void (empty),580.25,17.95,0.00,0.00,598.20,0.00,0.00,0.00,01/01/2019,31/03/2019,WEWORK INTERNATIONAL LTD,"RM 2.066 2ND FLR, WATERHOUSE SQUARE, 142 HOLBORN, LONDON, EC1N 2NH",,,,,No spatial information available,,30/10/2020 11:11:44 AM,http://opendatacommunities.org/id/london-borough-council/camden,178295
UPRN00761001500017,Occupied,24079.00,646.75,0.00,0.00,0.00,0.00,0.00,0.00,01/04/2016,31/03/2017,BRIGHT HORIZONS FAMILY,"15 GND (PART) & BST, GLOUCESTER GATE, LONDON, NW1 4HG",528600,183377,-0.147257,51.534661,Postcode Level,"(51.534661, -0.147257)",30/10/2020 11:10:08 AM,http://opendatacommunities.org/id/london-borough-council/camden,119196
UPRN0018700131002B,Occupied,18088.75,0.00,0.00,0.00,0.00,0.00,18088.75,0.00,01/04/2020,,KARMA BREAD LTD,"GND & MEZZ FLRS, 13 SOUTH END ROAD, LONDON, NW3 2PT",527251,185547,-0.165937,51.554466,Postcode Level,"(51.554466, -0.165937)",30/10/2020 11:12:25 AM,http://opendatacommunities.org/id/london-borough-council/camden,202177
UPRN00363035310006,Occupied,36973.50,863.50,0.00,0.00,0.00,0.00,0.00,0.00,01/04/2014,31/03/2015,LEASEHOLD PROPERTY MANAGEMENT,"PART 1ST FLR, 353 KENTISH TOWN ROAD, LONDON, NW5 2TJ",528986,185142,-0.141074,51.550433,Postcode Level,"(51.550433, -0.141074)",30/10/2020 11:08:59 AM,http://opendatacommunities.org/id/london-borough-council/camden,77571
UPRN01188000610082,Occupied,32560.00,560.00,0.00,0.00,0.00,0.00,0.00,0.00,01/04/2010,31/03/2011,ACTURIS LIMITED,"3RD F FRONT SAFFRON HOUSE, 6-10 KIRBY STREET, LONDON, EC1N 8TS",531422,181844,-0.107191,51.520233,Postcode Level,"(51.520233, -0.107191)",30/10/2020 11:07:09 AM,http://opendatacommunities.org/id/london-borough-council/camden,10671
UPRN0125200073S00B,Occupied,8407.32,161.00,0.00,0.00,0.00,0.00,0.00,0.00,01/04/2011,31/03/2012,,"3RD FLR SOUTH, 7 NEW SQUARE, LONDON, WC2A 3QS",530994,181256,-0.113549,51.51505,Postcode Level,"(51.51505, -0.113549)",30/10/2020 11:07:40 AM,http://opendatacommunities.org/id/london-borough-council/camden,30367
UPRN0111200091004B,Void (empty),67.53,1.22,0.00,0.00,68.75,0.00,0.00,0.00,18/01/2011,22/01/2011,INKINO LTD - IN LIQUIDATION,"2ND & 3RD FS, 9 GREAT RUSSELL STREET, LONDON, WC1B 3NH",529868,181467,-0.129689,51.517206,Postcode Level,"(51.517206, -0.129689)",30/10/2020 11:07:19 AM,http://opendatacommunities.org/id/london-borough-council/camden,17338
UPRN010510051A001A,Void (empty),706.29,13.76,0.00,0.00,720.05,0.00,0.00,0.00,17/01/2014,19/03/2014,ANDREW KIRK MANAGEMENT LIMITED,"3RD F FRNT, 51 FARRINGDON ROAD, LONDON, EC1M 3JB",531486,181855,-0.106239,51.520319,Postcode Level,"(51.520319, -0.106239)",30/10/2020 11:08:52 AM,http://opendatacommunities.org/id/london-borough-council/camden,73749
UPRN00743004300139,Occupied,19118.00,513.50,0.00,0.00,0.00,0.00,0.00,0.00,01/04/2016,31/03/2017,THE PACKSHOT COMPANY LTD,"UNITS 1-3 AT, 43 CAROL STREET, LONDON, NW1 0HT",529087,183871,-0.140084,51.538987,Postcode Level,"(51.538987, -0.140084)",30/10/2020 11:10:07 AM,http://opendatacommunities.org/id/london-borough-council/camden,119008
UPRN00641025100002,Void (empty),40016.50,1059.50,0.00,0.00,0.00,0.00,0.00,0.00,01/04/2019,31/03/2020,LOREMAR INVESTMENTS LTD,"BST & GND FS, 251 CAMDEN HIGH STREET, LONDON, NW1 7BU",528814,183993,-0.143948,51.540148,Postcode Level,"(51.540148, -0.143948)",30/10/2020 11:11:52 AM,http://opendatacommunities.org/id/london-borough-council/camden,182946
UPRN00808793720008,Occupied,15059.00,259.00,0.00,0.00,0.00,0.00,0.00,0.00,01/04/2010,31/03/2011,BP OIL UK LTD,"MOBIL OIL CO LTD, GOODSWAY, LONDON, NW1 1UR",,,,,No spatial information available,,30/10/2020 11:06:58 AM,http://opendatacommunities.org/id/london-borough-council/camden,4206
UPRN01204010301634,Occupied,139.89,2.71,0.00,0.00,0.00,0.00,0.00,0.00,01/04/2011,07/04/2011,TARGETSPACE LTD,"ROOM 163 16TH FLR CENTRE POINT, 103 NEW OXFORD STREET, LONDON, WC1A 1DD",,,,,No spatial information available,,30/10/2020 11:07:38 AM,http://opendatacommunities.org/id/london-borough-council/camden,29503
UPRN01025020300026,Occupied,18988.54,0.00,0.00,0.00,0.00,600.00,0.00,0.00,01/04/2018,31/03/2019,ESSILOR LTD,"GND F, 2-3 NORTH MEWS, LONDON, WC1N 2JP",530900,182088,-0.11462,51.522547,Postcode Level,"(51.522547, -0.11462)",30/10/2020 11:11:25 AM,http://opendatacommunities.org/id/london-borough-council/camden,166352
UPRN00948014950229,Occupied,1452.00,0.00,0.00,0.00,0.00,0.00,0.00,0.00,01/04/2016,31/03/2017,UCL HOSPITAL NHS FOUNDATION TRUST,"CAR SPACE 14 BST MAPLE HOUSE, 149 TOTTENHAM COURT ROAD, LONDON, W1T 7LB",,,,,No spatial information available,,30/10/2020 11:10:13 AM,http://opendatacommunities.org/id/london-borough-council/camden,122437
UPRN99045007230018,Occupied,45600.00,1235.00,0.00,0.00,0.00,0.00,0.00,0.00,01/04/2018,31/03/2019,THE PEOPLE'S SUPERMARKET PROPERTIES LIMI,"BST & GND FLR, 72-73 LAMB'S CONDUIT STREET, LONDON, WC1N 3LT",530614,182091,-0.118739,51.52264,Postcode Level,"(51.52264, -0.118739)",30/10/2020 11:11:36 AM,http://opendatacommunities.org/id/london-borough-council/camden,173261
UPRN01234002020042,Void (empty),11824.26,320.24,0.00,0.00,12144.50,0.00,0.00,0.00,07/08/2015,06/11/2015,STAFFORDSHIRE COUNTY COUNCIL,"4TH FLR, 20-22 STUKELEY STREET, LONDON, WC2B 5LT",530357,181415,-0.122691,51.516625,Postcode Level,"(51.516625, -0.122691)",30/10/2020 11:09:55 AM,http://opendatacommunities.org/id/london-borough-council/camden,111697
UPRN01126007710084,Occupied,302601.37,7067.12,0.00,0.00,0.00,0.00,0.00,0.00,01/05/2014,31/03/2015,FISHBURN COMMUNICATIONS LTD,"4TH-8TH FLRS, 77 KINGSWAY, LONDON, WC2B 8ST",,,,,No spatial information available,,30/10/2020 11:09:20 AM,http://opendatacommunities.org/id/london-borough-council/camden,89735
UPRN00212003410179,Occupied,4396.86,0.00,0.00,0.00,0.00,0.00,0.00,0.00,01/04/2019,04/07/2019,ROCKET PRODUCTION POP LLP,"UNIT 17 AT, 32-34 GORDON HOUSE ROAD, LONDON, NW5 1LP",528462,185750,-0.148406,51.556016,Postcode Level,"(51.556016, -0.148406)",30/10/2020 11:11:48 AM,http://opendatacommunities.org/id/london-borough-council/camden,180599
UPRN00045013700019,Void (empty),748.50,19.50,0.00,0.00,768.00,0.00,0.00,0.00,01/04/2020,,ANASPEL LIMITED,"CAR SPACE 1, R/O CENTRE HEIGHTS, 137 FINCHLEY ROAD, LONDON, NW3 6JG",526607,184345,-0.175653,51.543808,Postcode Level,"(51.543808, -0.175653)",30/10/2020 11:12:24 AM,http://opendatacommunities.org/id/london-borough-council/camden,201521
UPRN00927007810026,Occupied,8595.75,0.00,0.00,0.00,0.00,0.00,1000.00,0.00,01/04/2014,31/03/2015,CLEVELAND HAIR LTD,"GND F, 78 CLEVELAND STREET, LONDON, W1T 6ND",529114,181980,-0.140388,51.521987,Postcode Level,"(51.521987, -0.140388)",30/10/2020 11:09:07 AM,http://opendatacommunities.org/id/london-borough-council/camden,81870
UPRN0002500592000A,Occupied,15072.00,352.00,0.00,0.00,0.00,0.00,0.00,0.00,01/04/2014,31/03/2015,DAY MORRIS (HIGHGATE) LTD,"59-61, HIGHGATE HIGH STREET, LONDON, N6 5JX",528379,187403,-0.148973,51.570892,Postcode Level,"(51.570892, -0.148973)",30/10/2020 11:08:56 AM,http://opendatacommunities.org/id/london-borough-council/camden,76041
UPRN01410002500002,Void (empty),1004.38,19.57,0.00,0.00,0.00,0.00,0.00,0.00,14/02/2014,31/03/2014,DEVELOPMENT SECURITIES (NORTH LONDON) LT,"UNIT 25 BRUGES PLACE, LONDON, NW1 0TE",529278,184133,-0.137236,51.541298,Postcode Level,"(51.541298, -0.137236)",30/10/2020 11:08:54 AM,http://opendatacommunities.org/id/london-borough-council/camden,74598
UPRN012040103E6991,Void (empty),1440.00,39.00,0.00,0.00,1479.00,0.00,0.00,0.00,01/04/2015,31/03/2016,ALMACANTAR CENTRE POINT NOMINEE NO.1 LIM,"BST 16 AT, 103 NEW OXFORD STREET, LONDON, WC1A 1DD",,,,,No spatial information available,,30/10/2020 11:09:49 AM,http://opendatacommunities.org/id/london-borough-council/camden,107539
UPRN01086000150103,Void (empty),1053.29,29.38,0.00,0.00,0.00,0.00,0.00,0.00,01/04/2017,31/12/2017,DERWENT CENTRAL CROSS LIMITED,"CAR BAY 10 BST LEVEL 2 AT, 1 STEPHEN STREET, LONDON, W1T 1AL",529694,181517,-0.132203,51.517694,Postcode Level,"(51.517694, -0.132203)",30/10/2020 11:10:53 AM,http://opendatacommunities.org/id/london-borough-council/camden,145976
UPRN01175028900052,Void (empty),160.75,3.13,0.00,0.00,163.88,0.00,0.00,0.00,30/03/2014,31/03/2014,O&H (FOUR) LIMITED,"6TH FLR NORTH CELCON HOUSE, 289-293 HIGH HOLBORN, LONDON, WC1V 7HZ",530875,181565,-0.115174,51.517853,Postcode Level,"(51.517853, -0.115174)",30/10/2020 11:08:56 AM,http://opendatacommunities.org/id/london-borough-council/camden,75790
UPRN01182002400085,Occupied,943.68,0.00,943.68,0.00,0.00,0.00,0.00,0.00,01/10/2010,31/03/2011,WOODLAND GROUP LIMITED,"ROOM G.02 GND FLR, 24 GREVILLE STREET, LONDON, EC1N 8SS",531486,181751,-0.106304,51.519383,Postcode Level,"(51.519383, -0.106304)",30/10/2020 11:07:17 AM,http://opendatacommunities.org/id/london-borough-council/camden,15770
UPRN01238004330125,Void (empty),0.00,0.00,0.00,0.00,0.00,0.00,0.00,0.00,01/04/2019,31/03/2020,PARKER TOWER LIMITED,"12TH FLR (VOID PARTS), PARKER TOWER, 43-49 PARKER STREET, LONDON, WC2B 5PS",530504,181410,-0.120549,51.516548,Postcode Level,"(51.516548, -0.120549)",30/10/2020 11:12:10 AM,http://opendatacommunities.org/id/london-borough-council/camden,193961
UPRN01222001620002,Void (empty),37316.00,988.00,0.00,0.00,38304.00,0.00,0.00,0.00,01/04/2019,31/03/2020,SHAFTESBURY COVENT GARDEN LTD,"1ST FLR, THOMAS NEALS, 20 SHORTS GARDENS, LONDON, WC2H 9AT",530095,181131,-0.126569,51.514133,Postcode Level,"(51.514133, -0.126569)",30/10/2020 11:12:09 AM,http://opendatacommunities.org/id/london-borough-council/camden,193517
UPRN00877010610803,Occupied,9326.83,0.00,0.00,0.00,0.00,150.00,0.00,0.00,01/04/2018,31/03/2019,GRAZIE MILLE LONDON LIMITED,"BST & GND FLRS, 106-108 CROMER STREET, LONDON, WC1H 8BZ",530275,182648,-0.123416,51.527724,Postcode Level,"(51.527724, -0.123416)",30/10/2020 11:11:20 AM,http://opendatacommunities.org/id/london-borough-council/camden,162970
UPRN00948014950534,Occupied,1221.00,21.00,0.00,0.00,0.00,0.00,0.00,0.00,01/04/2010,31/03/2011,UCL HOSPITAL NHS FOUNDATION TRUST,"CAR SPACE 92 BST MAPLE HOUSE, 149 TOTTENHAM COURT ROAD, LONDON, W1T 7LB",,,,,No spatial information available,,30/10/2020 11:07:01 AM,http://opendatacommunities.org/id/london-borough-council/camden,6362
UPRN00794005900008,Occupied,2448.00,0.00,2448.00,0.00,0.00,0.00,0.00,0.00,01/04/2015,31/03/2016,MAGNIFICENT SECURITY  LIMITED,"BST & GND FS, 59 CHALTON STREET, LONDON, NW1 1HY",529770,182879,-0.130607,51.529916,Postcode Level,"(51.529916, -0.130607)",30/10/2020 11:09:36 AM,http://opendatacommunities.org/id/london-borough-council/camden,99638
UPRN01095003010022,Occupied,970.73,0.00,970.73,0.00,0.00,0.00,0.00,0.00,13/09/2019,31/03/2020,FUTURE AGENCY LTD,"LGND FLR RR, 30 BLOOMSBURY STREET, LONDON, WC1B 3QJ",529995,181586,-0.127816,51.518246,Postcode Level,"(51.518246, -0.127816)",30/10/2020 11:12:18 AM,http://opendatacommunities.org/id/london-borough-council/camden,198437
UPRN01540000700025,Occupied,1420.38,23.41,0.00,1155.03,0.00,288.76,0.00,0.00,01/04/2011,02/05/2011,HOPSCOTCH ASIAN WOMENS CENTRE,"1ST FLR RIGHT, 7 DOWDNEY CLOSE, LONDON, NW5 2BG",,,,,No spatial information available,,30/10/2020 11:07:40 AM,http://opendatacommunities.org/id/london-borough-council/camden,30544
UPRN00782016300204,Occupied,871.46,15.75,0.00,0.00,0.00,0.00,0.00,0.00,01/04/2010,31/03/2011,L F H BRAND IDENTITY CONSULTANTS LIMITED,"CAR SPACE NO 20, CARRIAGE ROW AT, 163 EVERSHOLT STREET, LONDON, NW1 1BL",529414,183102,-0.135654,51.532002,Postcode Level,"(51.532002, -0.135654)",30/10/2020 11:06:58 AM,http://opendatacommunities.org/id/london-borough-council/camden,4068
UPRN00363010600057,Occupied,57936.00,952.00,0.00,0.00,0.00,0.00,0.00,0.00,01/04/2011,31/03/2012,BANKS SADLER LTD,"1ST FLR CAMDEN ISLAND, 106-110 KENTISH TOWN ROAD, LONDON, NW1 9PX",528987,184460,-0.141284,51.544306,Postcode Level,"(51.544306, -0.141284)",30/10/2020 11:07:23 AM,http://opendatacommunities.org/id/london-borough-council/camden,19942
UPRN00411001200007,Occupied,9451.75,0.00,0.00,0.00,0.00,0.00,0.00,0.00,01/04/2019,31/03/2020,E&D AGENCY LTD,"12 WEST HAMPSTEAD MEWS, LONDON, NW6 3BB",525606,184556,-0.190005,51.545928,Postcode Level,"(51.545928, -0.190005)",30/10/2020 11:11:49 AM,http://opendatacommunities.org/id/london-borough-council/camden,181625
UPRN00889008335197,Void (empty),1035.00,18.40,0.00,0.00,1053.40,0.00,0.00,0.00,01/04/2012,31/03/2013,ROMULUS SECURITIES LTD,"BST 4 CLIFTON HOUSE, 83-117 EUSTON ROAD, LONDON, NW1 2RA",530015,182732,-0.127131,51.528539,Postcode Level,"(51.528539, -0.127131)",30/10/2020 11:07:59 AM,http://opendatacommunities.org/id/london-borough-council/camden,41983
UPRN00948014990635,Occupied,1386.00,0.00,0.00,0.00,0.00,0.00,0.00,0.00,01/04/2013,31/03/2014,HIT ENTERTAINMENT LTD,"CAR SPACE 63 BST MAPLE HOUSE, 149 TOTTENHAM COURT ROAD, LONDON, W1T 7LB",,,,,No spatial information available,,30/10/2020 11:08:33 AM,http://opendatacommunities.org/id/london-borough-council/camden,62498
UPRN00895006000223,Occupied,968.00,0.00,0.00,0.00,0.00,0.00,0.00,0.00,01/04/2016,31/03/2017,WORKSPACE GROUP PLC,"CAR SPACE 22 R/O, 60 GRAYS INN ROAD, LONDON, WC1X 8AQ",,,,,No spatial information available,,30/10/2020 11:10:11 AM,http://opendatacommunities.org/id/london-borough-council/camden,121000
UPRN00895006010046,Void (empty),0.00,0.00,0.00,0.00,0.00,0.00,0.00,0.00,06/03/2018,31/03/2018,WORKSPACE GROUP PLC,"4TH-6TH FLRS, 60 GRAY'S INN ROAD, LONDON, WC1X 8LT",531084,181805,-0.112048,51.519963,Postcode Level,"(51.519963, -0.112048)",30/10/2020 11:11:12 AM,http://opendatacommunities.org/id/london-borough-council/camden,157515
UPRN99123000130412,Occupied,23785.50,555.50,0.00,0.00,0.00,0.00,0.00,0.00,01/04/2014,31/03/2015,THE OFFICE GROUP PROPERTIES LIMITED,"R4.10 4TH FLR, 1 EUSTON SQUARE, LONDON, NW1 2EE",,,,,No spatial information available,,30/10/2020 11:09:19 AM,http://opendatacommunities.org/id/london-borough-council/camden,89328
UPRN01193002224089,Void (empty),568.11,15.39,0.00,0.00,0.00,0.00,0.00,0.00,21/11/2018,02/12/2018,OFFICE PORTFOLIO LTD,"GND FL NORTH, 22-24 ELY PLACE, LONDON, EC1N 6TE",531459,181706,-0.106709,51.518985,Postcode Level,"(51.518985, -0.106709)",30/10/2020 11:11:43 AM,http://opendatacommunities.org/id/london-borough-council/camden,177665
UPRN00784005930024,Occupied,21240.00,575.25,0.00,0.00,0.00,0.00,0.00,0.00,01/04/2015,31/03/2016,LBC-G26304623140,"PT 2ND FLR, 59 CROWNDALE ROAD, LONDON, NW1 1TN",529293,183388,-0.137293,51.5346,Postcode Level,"(51.5346, -0.137293)",30/10/2020 11:09:36 AM,http://opendatacommunities.org/id/london-borough-council/camden,99602
